timeTick, otX0, otY0, otZ0, otRoll0, otPitch0, otYaw0, otX1, otY1, otZ1, otRoll1, otPitch1, otYaw1, rlX1, rlY1, rlZ1, rlYaw1, dist1, PX1, PY1, PZ1, PYaw1, vx0, vy0, vz0, r0, vx1, vy1, vz1, r1
279365, 0.9274590611457825, -0.5934226512908936, 0.07294002175331116, 0.4634225629731586, -0.5795298386288721, -10.974239008708215, -1.5819661617279053, -0.7054881453514099, 0.0574847012758255, -0.6273646115791957, 0.5383284337728753, -7.8983822101738985, -2.410789728164673, -0.964055061340332, -0.3839026093482971, -0.970215380191803, 2.6210720539093018, 0, 0, 0, 0, 0, 0, 0, 0, 0, 0, 0, 0
279375, 0.927460789680481, -0.5934166312217712, 0.07292267680168152, 0.4644491903148418, -0.5764198109082486, -10.97089911769545, -1.581970453262329, -0.7054936289787292, 0.0574597604572773, -0.619715059996464, 0.5393708804380708, -7.893814400269477, -2.4117753505706787, -0.9649868011474609, -0.3826883137226105, -0.9702390432357788, 2.637256145477295, 0.10499203950166702, 0.6139490008354187, 0.15524202585220337, 0.19182348251342773, 0.0737486258149147, 0.0795888602733612, -0.1384313702583313, -0.00010803855548147112, 0.008059995248913765, 0.02991589531302452, -0.029579823836684227, 0.0005073939682915807
279385, 0.9274423122406006, -0.5934023261070251, 0.07294297218322754, 0.44602451839395396, -0.5756280228293065, -10.980720903037895, -1.581978440284729, -0.7054992914199829, 0.05747353285551071, -0.6295133470323576, 0.5358285155435283, -7.89409826694881, -2.4122791290283203, -0.9657253623008728, -0.38159045577049255, -0.9702377915382385, 2.6277360916137695, 0.10501399636268616, 0.6140622496604919, 0.15527662634849548, 0.1918473094701767, 0.0737384557723999, 0.07959197461605072, -0.13662485778331757, -6.767563900211826e-05, 0.00804621446877718, 0.029923224821686745, -0.029154565185308456, 0.00047002366045489907
279395, 0.9274517297744751, -0.5934104919433594, 0.07290831953287125, 0.4611439392807358, -0.5776685607290233, -10.976805632861394, -1.581958293914795, -0.7054934501647949, 0.05747281387448311, -0.6248709865737988, 0.5398764617837912, -7.891605200619989, -2.418039560317993, -0.9719643592834473, -0.3767387568950653, -0.9706748127937317, 2.763871908187866, 0.10504040122032166, 0.6141614317893982, 0.15530525147914886, 0.19187110662460327, 0.07372784614562988, 0.07959450036287308, -0.13826477527618408, -4.3281765101710334e-05, 0.00803406536579132, 0.029932614415884018, 0.024216368794441223, 0.00034483143826946616
279405, 0.9274613261222839, -0.5934212803840637, 0.07293079048395157, 0.4592894067750688, -0.5750925887585652, -10.973150405963246, -1.5819661617279053, -0.7054980993270874, 0.057481132447719574, -0.6235197088053456, 0.5304390154631164, -7.891876471608761, -2.4183809757232666, -0.9714692831039429, -0.37562763690948486, -0.9706087112426758, 2.6239278316497803, 0.10509616881608963, 0.6139887571334839, 0.15529325604438782, 0.19189423322677612, 0.0737183541059494, 0.07959551364183426, -0.13648183643817902, -0.00016912394494283944, 0.008025351911783218, 0.029939573258161545, 0.023855727165937424, 4.4673881347989663e-05
279415, 0.9274510741233826, -0.593421995639801, 0.07292766124010086, 0.46841409640178266, -0.581605735363695, -10.98301236130416, -1.581966757774353, -0.7054996490478516, 0.05746208131313324, -0.6285268026461178, 0.5342319178336368, -7.8958768786888704, -2.418649196624756, -0.9712954163551331, -0.3753426969051361, -0.97055584192276, 2.624880075454712, 0.10514762252569199, 0.6139219999313354, 0.15528778731822968, 0.19191762804985046, 0.0737089291214943, 0.07959596812725067, -0.04665262624621391, -0.0003995742881670594, 0.008025351911783218, 0.029939573258161545, 0.023855727165937424, -2.1118505173944868e-05
279425, 0.9274544715881348, -0.5934272408485413, 0.07289652526378632, 0.4678219497135654, -0.582800242737818, -10.98049867660368, -1.581976056098938, -0.7055025696754456, 0.05745421350002289, -0.6268352618520722, 0.5315603938202003, -7.89666250410378, -2.4216949939727783, -0.9809461236000061, -0.36979538202285767, -0.9710711240768433, 2.740072250366211, 0.10519524663686752, 0.6139068603515625, 0.1552867293357849, 0.19194114208221436, 0.0737013965845108, 0.07959584891796112, -0.04613969102501869, -0.0005730235716328025, 0.007999091409146786, 0.029949255287647247, 0.03354710340499878, -0.0001825844228733331
279435, 0.9274656176567078, -0.593417763710022, 0.07292355597019196, 0.459830194167094, -0.5847705428988377, -10.96968341833687, -1.5819774866104126, -0.7054924964904785, 0.05748781934380531, -0.6258416442435221, 0.537366612283364, -7.901963694443602, -2.424593210220337, -0.9658458828926086, -0.3719864785671234, -0.9703108072280884, 2.5782320499420166, 0.10522273927927017, 0.6126610636711121, 0.15520277619361877, 0.19196200370788574, 0.07369416207075119, 0.07959682494401932, -0.052605777978897095, -0.0006853080703876913, 0.007986005395650864, 0.02995316870510578, 0.20277905464172363, -0.00025972042931243777
279445, 0.9274604320526123, -0.5934305787086487, 0.07291708886623383, 0.46560162609958977, -0.5824319153578585, -10.980469936240732, -1.5819778442382812, -0.7055084705352783, 0.057462405413389206, -0.6222607888324869, 0.5422763676859859, -7.891516793035986, -2.4197890758514404, -0.9723038673400879, -0.3728286921977997, -0.9705369472503662, 2.589656114578247, 0.10502853989601135, 0.6124846935272217, 0.15513774752616882, 0.19198551774024963, 0.07369054853916168, 0.07959479838609695, -0.05193095654249191, -0.0007298793061636388, 0.007975365966558456, 0.02995620295405388, 0.20039759576320648, -0.0002889499010052532
279455, 0.9274536967277527, -0.5934273600578308, 0.07291646301746368, 0.45483108214925794, -0.5728464441485244, -10.966751425067825, -1.5819770097732544, -0.7055081725120544, 0.05745399743318558, -0.627044900117403, 0.5306193617433621, -7.893482743405027, -2.421191453933716, -0.9757899045944214, -0.36963140964508057, -0.9706963896751404, 2.6705758571624756, 0.1050739735364914, 0.6124906539916992, 0.15513715147972107, 0.1920090913772583, 0.07368706166744232, 0.0795925185084343, -0.05468441918492317, -0.0006433125236071646, 0.00796368159353733, 0.029958931729197502, 0.10616140812635422, -0.00028135583852417767
279465, 0.9274609088897705, -0.5934284329414368, 0.07294448465108871, 0.4578003706287021, -0.5747509316631749, -10.97045407849086, -1.5819660425186157, -0.7054999470710754, 0.05745905637741089, -0.6289664374182979, 0.5362562119323684, -7.897858604031444, -2.4213955402374268, -0.9714115262031555, -0.3701934516429901, -0.9704304933547974, 2.5991761684417725, 0.10513292998075485, 0.6122516989707947, 0.15511098504066467, 0.1920320987701416, 0.07368693500757217, 0.07959263771772385, -0.05384478718042374, -0.0005000379751436412, 0.007953785359859467, 0.02996082603931427, 0.10488516837358475, -0.00026636835536919534
279475, 0.9274578094482422, -0.5934174656867981, 0.0729401558637619, 0.4637986699760862, -0.5797161069146739, -10.975356957760885, -1.5819743871688843, -0.7054905295372009, 0.057485431432724, -0.6232075941556038, 0.530991509620435, -7.899597290945059, -2.41921329498291, -0.970871090888977, -0.3701033592224121, -0.9703342318534851, 2.583944082260132, 0.10513821244239807, 0.6123719215393066, 0.15507657825946808, 0.19205604493618011, 0.07368756830692291, 0.07959070056676865, -0.1273273229598999, -0.00027420136029832065, 0.007943124510347843, 0.02996251732110977, 0.19190403819084167, -0.00029618709231726825
279485, 0.9274451732635498, -0.593422532081604, 0.0729159563779831, 0.4599721569798312, -0.5794617961594497, -10.980223799103644, -1.5819761753082275, -0.7055084705352783, 0.05748344957828522, -0.6283132998152987, 0.5315579576341065, -7.898673685728476, -2.4179723262786865, -0.9704457521438599, -0.36883214116096497, -0.9702549576759338, 2.5972719192504883, 0.10515109449625015, 0.6124846935272217, 0.15506038069725037, 0.19207993149757385, 0.07368825376033783, 0.07958798110485077, -0.12575313448905945, -0.00014385419490281492, 0.00793117843568325, 0.029964487999677658, 0.18955865502357483, -0.0004563602851703763
279495, 0.9274575114250183, -0.5934281945228577, 0.072931669652462, 0.45535267250054784, -0.5819532390067366, -10.9732470141622, -1.5819751024246216, -0.705499529838562, 0.05746357887983322, -0.627257296731969, 0.5309318831041026, -7.899290354831414, -2.4173619747161865, -0.9704717397689819, -0.36613550782203674, -0.9702126383781433, 2.6096479892730713, 0.1051613837480545, 0.6125986576080322, 0.1550324559211731, 0.19210384786128998, 0.07368777692317963, 0.07958409190177917, -0.12059172242879868, -6.0633723478531465e-05, 0.007918239571154118, 0.02996733970940113, 0.2756340801715851, -0.0005856369389221072
279505, 0.9274458885192871, -0.593409538269043, 0.07292761653661728, 0.4632080516125488, -0.5830298177381508, -10.983539731481493, -1.5819828510284424, -0.7055089473724365, 0.05748889595270157, -0.6241851704543029, 0.5345357574148863, -7.894332356036983, -2.4190783500671387, -0.9720543026924133, -0.36047467589378357, -0.9702771306037903, 2.657248020172119, 0.10517152398824692, 0.6127086281776428, 0.1549835205078125, 0.1921277642250061, 0.07368471473455429, 0.07958219200372696, -0.11902078986167908, -1.7363407096127048e-05, 0.007906210608780384, 0.029971906915307045, 0.27230826020240784, -0.0006940881139598787
279515, 0.9274422526359558, -0.5934351086616516, 0.07291653752326965, 0.45269466274034825, -0.575619341691123, -10.976238877272197, -1.5819891691207886, -0.7055150270462036, 0.05745711177587509, -0.621722894518176, 0.5259839385991256, -7.89956552992066, -2.419663906097412, -0.972898006439209, -0.3571878671646118, -0.9702928066253662, 2.63535213470459, 0.10518712550401688, 0.6127936244010925, 0.1548692137002945, 0.19215163588523865, 0.07368050515651703, 0.07957836985588074, -0.061003170907497406, -2.5336086764582433e-05, 0.007895191200077534, 0.029976554214954376, 0.2405817061662674, -0.0007970153819769621
279525, 0.9274601936340332, -0.5934208035469055, 0.07293131947517395, 0.467622373789556, -0.5880565764231278, -10.971617680592042, -1.5819729566574097, -0.7055094242095947, 0.05747811496257782, -0.6245807167446822, 0.5315864041285181, -7.894788009742055, -2.4199790954589844, -0.9734188318252563, -0.3544992506504059, -0.9702907204627991, 2.6296401023864746, 0.10520625114440918, 0.612860381603241, 0.15471860766410828, 0.19217549264431, 0.07367516309022903, 0.0795753002166748, -0.06031343713402748, -1.4293636922957376e-05, 0.007881423458456993, 0.029981208965182304, 0.23747316002845764, -0.0006394730880856514
279535, 0.9274514317512512, -0.5934305787086487, 0.07289086282253265, 0.4661943311501159, -0.5788937708301773, -10.977181057802257, -1.5819737911224365, -0.7055114507675171, 0.05746067315340042, -0.6262451021757542, 0.5370664906663762, -7.893110534446605, -2.418733835220337, -0.9715656638145447, -0.3569101393222809, -0.9701709151268005, 2.591559886932373, 0.10522868484258652, 0.6129171252250671, 0.15457960963249207, 0.19219931960105896, 0.07366964966058731, 0.07957329601049423, -0.03135477751493454, 0.00012198286276543513, 0.00787081103771925, 0.029982544481754303, 0.11443319171667099, -0.0003705067210830748
279545, 0.9274666905403137, -0.59341961145401, 0.07293806225061417, 0.4593221816649968, -0.5795542549672916, -10.985295139926349, -1.5819835662841797, -0.705507755279541, 0.057456277310848236, -0.6253729357596194, 0.5345043248876209, -7.890429822806519, -2.4168484210968018, -0.9708759784698486, -0.35875898599624634, -0.9700882434844971, 2.5848960876464844, 0.10523329675197601, 0.6130337715148926, 0.15451739728450775, 0.19222326576709747, 0.07366348057985306, 0.07957107573747635, -0.030947178602218628, 0.00023383769439533353, 0.007861431688070297, 0.029984429478645325, 0.11298021674156189, -0.00012002298899460584
279555, 0.9274545311927795, -0.5933958292007446, 0.07295814901590347, 0.444031305566176, -0.5717778905796251, -10.976307435154693, -1.5819677114486694, -0.705497682094574, 0.057459697127342224, -0.6266522797374905, 0.5405380402660569, -7.8932559629119, -2.4150381088256836, -0.9700813293457031, -0.3589303195476532, -0.9699921011924744, 2.5820400714874268, 0.10524209588766098, 0.6131494641304016, 0.15448839962482452, 0.1922471821308136, 0.07365801930427551, 0.07957066595554352, -0.12240391224622726, 0.00042014860082417727, 0.007853417657315731, 0.029986755922436714, 0.13623256981372833, 0.00016438729653600603
279565, 0.9274448156356812, -0.5934271812438965, 0.07293001562356949, 0.46259301073651815, -0.5824250391217163, -10.981918162321168, -1.5819817781448364, -0.7055044770240784, 0.057481490075588226, -0.6303177002448088, 0.5332413642643132, -7.894359982311083, -2.417102336883545, -0.9717631936073303, -0.35467255115509033, -0.9700669646263123, 2.662008047103882, 0.10525164753198624, 0.6132676005363464, 0.1544780731201172, 0.19227109849452972, 0.07364990562200546, 0.07957085967063904, -0.1209273710846901, 0.0004785163328051567, 0.007845018990337849, 0.02998952567577362, 0.13454565405845642, 0.0001743984903441742
279575, 0.9274467825889587, -0.5934275388717651, 0.07292645424604416, 0.4648638535342776, -0.5777014464821661, -10.97110468436589, -1.5819790363311768, -0.7055081129074097, 0.05747101828455925, -0.628807587659739, 0.53600610763894, -7.8946071809824065, -2.4165070056915283, -0.9713954925537109, -0.35368433594703674, -0.9700108170509338, 2.6058402061462402, 0.10526710003614426, 0.6133628487586975, 0.1544180065393448, 0.19229498505592346, 0.07364107668399811, 0.07957065105438232, -0.13008275628089905, 0.0004182839475106448, 0.007845018990337849, 0.02998952567577362, 0.13454565405845642, 0.00014931087207514793
279585, 0.9274594187736511, -0.5934026837348938, 0.07293381541967392, 0.4426692345628733, -0.5651297314979615, -10.971020405117406, -1.5819631814956665, -0.7055075764656067, 0.05745801702141762, -0.6288909685097515, 0.532711130675608, -7.896769583899283, -2.4163804054260254, -0.9716028571128845, -0.35147085785865784, -0.9699867963790894, 2.616312026977539, 0.1052786260843277, 0.6134675145149231, 0.15435616672039032, 0.1923189014196396, 0.07363572716712952, 0.07957383245229721, -0.12842974066734314, 0.00032579616527073085, 0.007833116687834263, 0.029993811622262, 0.18021324276924133, 1.3721632967644837e-05
279595, 0.9274382591247559, -0.593433678150177, 0.07293014228343964, 0.4676704254326449, -0.575330295940006, -10.98495631283669, -1.5819857120513916, -0.7054961919784546, 0.057472217828035355, -0.6261446121076104, 0.5334666884241983, -7.900417956436653, -2.415731906890869, -0.971254289150238, -0.35137221217155457, -0.9699298143386841, 2.603935956954956, 0.10529398918151855, 0.6135657429695129, 0.15430080890655518, 0.19234278798103333, 0.07362786680459976, 0.07957665622234344, -0.12323068827390671, 0.000243420698097907, 0.007831274531781673, 0.02999204397201538, 0.05440459027886391, 0.000111147623101715
279605, 0.9274502396583557, -0.5934289693832397, 0.07293612509965897, 0.461085539307213, -0.5780816598705201, -10.972195856681788, -1.5819735527038574, -0.7055087089538574, 0.05748381465673447, -0.6210219863821651, 0.5331745646101069, -7.893836285039334, -2.415576934814453, -0.9714251756668091, -0.35043907165527344, -0.9698998928070068, 2.614408016204834, 0.10530804842710495, 0.6136707663536072, 0.1542636901140213, 0.19236668944358826, 0.07361799478530884, 0.0795801430940628, -0.12170176208019257, 0.0003341417759656906, 0.0078286686912179, 0.029990578070282936, 0.053771257400512695, 0.00027492098161019385
279615, 0.9274563193321228, -0.5934082865715027, 0.0729370191693306, 0.46312835124614143, -0.577617958955102, -10.981092573707327, -1.5819751024246216, -0.7054999470710754, 0.05746321752667427, -0.6233234622549044, 0.5315220044982141, -7.900063872238189, -2.4139797687530518, -0.9700530767440796, -0.35251837968826294, -0.9697756767272949, 2.579184055328369, 0.10532648116350174, 0.6137699484825134, 0.1542460173368454, 0.1923905611038208, 0.07360856980085373, 0.0795828327536583, -0.07429030537605286, 0.0004876738239545375, 0.007822963409125805, 0.029988465830683708, -0.024550091475248337, 0.00046067137736827135
279625, 0.9274427890777588, -0.5934352278709412, 0.07292284816503525, 0.46316366803805853, -0.5782146737643927, -10.973815423439046, -1.5819754600524902, -0.7055075168609619, 0.05745682865381241, -0.6244404313892474, 0.5324719775947528, -7.900349529394901, -2.4116175174713135, -0.9691421985626221, -0.3541797995567322, -0.9696500897407532, 2.56490421295166, 0.10533782094717026, 0.6138918399810791, 0.15426065027713776, 0.19241447746753693, 0.07359979301691055, 0.07958631217479706, -0.07332319021224976, 0.0005123129230923951, 0.007817728444933891, 0.02998833730816841, -0.024195386096835136, 0.0005388004938140512
279635, 0.9274451732635498, -0.5934208631515503, 0.07292548567056656, 0.46037606196658126, -0.5827419992340879, -10.975427045137797, -1.5819737911224365, -0.7055091261863708, 0.057472676038742065, -0.6277937287075058, 0.5367560947455843, -7.899291708154197, -2.4091947078704834, -0.9678486585617065, -0.3555736541748047, -0.9694831967353821, 2.5553841590881348, 0.10535609722137451, 0.6140108108520508, 0.1542956829071045, 0.19243836402893066, 0.0735948234796524, 0.07959119230508804, -0.03700124844908714, 0.0005755560123361647, 0.007814912125468254, 0.02998853102326393, -0.0697396993637085, 0.0005744733498431742
279645, 0.9274619221687317, -0.5934125185012817, 0.07291671633720398, 0.46843700301085994, -0.5814165730800767, -10.985746788639773, -1.5819637775421143, -0.7054972052574158, 0.05747687444090843, -0.620887583515628, 0.5374624740777278, -7.902873464195712, -2.409468412399292, -0.9684341549873352, -0.3559136986732483, -0.9694744348526001, 2.6172640323638916, 0.10537324100732803, 0.6141359210014343, 0.15433530509471893, 0.1924622505903244, 0.07358669489622116, 0.07959462702274323, -0.03642217442393303, 0.0005218107253313065, 0.007814726792275906, 0.029991216957569122, -0.06876284629106522, 0.00045881501864641905
279655, 0.9274637699127197, -0.5934172868728638, 0.07291369885206223, 0.45738854835624493, -0.5808607030681969, -10.965097885358018, -1.5819684267044067, -0.7055103778839111, 0.057470373809337616, -0.6239476497388311, 0.5328046712797629, -7.8882207826530735, -2.4111886024475098, -0.9702363014221191, -0.35602718591690063, -0.9695683717727661, 2.655344009399414, 0.10539950430393219, 0.6142473220825195, 0.15437521040439606, 0.19248609244823456, 0.07357876747846603, 0.07959575951099396, -0.025193361565470695, 0.000246858544414863, 0.007809604983776808, 0.029994983226060867, -0.042962584644556046, 0.0002624129119794816
279665, 0.9274502396583557, -0.5934180617332458, 0.07294493913650513, 0.4608291154885419, -0.5844073788521769, -10.976977255077394, -1.581967830657959, -0.7054945826530457, 0.05747503042221069, -0.623155444437518, 0.5299822567593537, -7.89542275213435, -2.4109504222869873, -0.9695575833320618, -0.3562298119068146, -0.9694728851318359, 2.600128173828125, 0.10543994605541229, 0.614314079284668, 0.15441517531871796, 0.19250978529453278, 0.0735715851187706, 0.07959595322608948, -0.024834295734763145, 3.9959235436981544e-05, 0.007804659195244312, 0.02999771013855934, -0.04222479462623596, 0.00022001592151354998
279675, 0.9274620413780212, -0.5934112071990967, 0.07292400300502777, 0.46423401155004074, -0.579790034881654, -10.981716696389226, -1.5819685459136963, -0.7054953575134277, 0.057464368641376495, -0.621555315242758, 0.5294407969412873, -7.892701693524442, -2.412254571914673, -0.9712210297584534, -0.35548537969589233, -0.969545841217041, 2.6477279663085938, 0.10547135770320892, 0.6144137978553772, 0.1544547975063324, 0.19253359735012054, 0.0735655352473259, 0.07959574460983276, -0.028191467747092247, -4.571739918901585e-05, 0.007805968634784222, 0.029998864978551865, 0.03600916638970375, 8.034130587475374e-05
279685, 0.9274627566337585, -0.59342360496521, 0.07291213423013687, 0.4586625642581232, -0.5779000198176618, -10.978604472924587, -1.5819724798202515, -0.7054994702339172, 0.05744931101799011, -0.6292882090270415, 0.535991640639196, -7.895556961498058, -2.413327217102051, -0.9733922481536865, -0.35466521978378296, -0.969639778137207, 2.6486799716949463, 0.1055147647857666, 0.6144643425941467, 0.15449358522891998, 0.19255726039409637, 0.0735563337802887, 0.07959551364183426, -0.027942704036831856, -0.00021256311447359622, 0.007805968634784222, 0.029998864978551865, 0.03600916638970375, -7.40466348361224e-05
279695, 0.927452027797699, -0.5934229493141174, 0.07294014096260071, 0.45812533237387093, -0.5761648150704275, -10.981554733178962, -1.581974744796753, -0.7054993510246277, 0.05747951194643974, -0.6235316510768348, 0.5318510731791832, -7.893119427137799, -2.413449287414551, -0.9718584418296814, -0.354220449924469, -0.9695091247558594, 2.603935956954956, 0.10557018965482712, 0.614402711391449, 0.1545311063528061, 0.19258062541484833, 0.07354801893234253, 0.0795949324965477, -0.048853084444999695, -0.00040439554140903056, 0.00780586339533329, 0.030000153928995132, 0.020991554483771324, -0.00023091424372978508
279705, 0.9274592399597168, -0.5934205651283264, 0.07293091714382172, 0.4626552040061539, -0.5768437380710907, -10.977947767428962, -1.5819627046585083, -0.7054985165596008, 0.057476967573165894, -0.6272300140689768, 0.534626252855162, -7.895835424920648, -2.412196159362793, -0.9696423411369324, -0.3542439341545105, -0.969314455986023, 2.5725200176239014, 0.10560964792966843, 0.6144735813140869, 0.15456750988960266, 0.19260436296463013, 0.07353909313678741, 0.07959473133087158, -0.048224497586488724, -0.00047320793964900076, 0.007804313208907843, 0.030000433325767517, 0.020750589668750763, -0.00027297987253405154
279715, 0.9274669289588928, -0.5934191346168518, 0.07293172180652618, 0.4587370028642439, -0.5824055428815598, -10.974264021943178, -1.5819697380065918, -0.7055008411407471, 0.057455677539110184, -0.6233666985573768, 0.5393060443321076, -7.883810074273547, -2.410552740097046, -0.9697532057762146, -0.35471436381340027, -0.9692327976226807, 2.5801358222961426, 0.10562469065189362, 0.6146003603935242, 0.15460656583309174, 0.19262830913066864, 0.07352691143751144, 0.07959450036287308, 0.040801189839839935, -0.0005526235327124596, 0.007803282700479031, 0.03000287152826786, 0.02404695749282837, -0.00021999359887558967
279725, 0.9274592399597168, -0.5934144258499146, 0.07294051349163055, 0.46313084078761624, -0.5807411180107636, -10.96870767022834, -1.5819696187973022, -0.7055051326751709, 0.05746908113360405, -0.6283998063500946, 0.533604304084264, -7.897622708507831, -2.409839391708374, -0.9695255756378174, -0.35491445660591125, -0.9691480994224548, 2.5934641361236572, 0.10565440356731415, 0.6147101521492004, 0.15464656054973602, 0.19265216588974, 0.07351621240377426, 0.07959271222352982, 0.04039115831255913, -0.0006416692631319165, 0.007800679188221693, 0.030005069449543953, 0.023679647594690323, -0.00010645180009305477
279735, 0.9274494647979736, -0.593423068523407, 0.07292624562978745, 0.46485631854058584, -0.5824417046623864, -10.972679988034585, -1.5819900035858154, -0.7055065631866455, 0.05745755881071091, -0.6283551643260525, 0.529343353905432, -7.900195542581123, -2.4087867736816406, -0.9690276980400085, -0.3547554314136505, -0.9690366983413696, 2.583944082260132, 0.10568424314260483, 0.6148198246955872, 0.1546865552663803, 0.19267602264881134, 0.07350507378578186, 0.07958988845348358, 0.022218389436602592, -0.0006642290973104537, 0.007799576036632061, 0.030008589848876, 0.04097244143486023, 0.00023317283194046468
279745, 0.9274640679359436, -0.5934329032897949, 0.07292719930410385, 0.46202283843998926, -0.5758494735567581, -10.973776271358187, -1.5819666385650635, -0.7054968476295471, 0.0574505589902401, -0.6253450836905993, 0.5313459567092877, -7.895428955336359, -2.4092166423797607, -0.9697279930114746, -0.3545699119567871, -0.969025194644928, 2.6210720539093018, 0.10571204125881195, 0.614933431148529, 0.1547265499830246, 0.19269990921020508, 0.07349444925785065, 0.07958581298589706, 0.021938098594546318, -0.0006317900260910392, 0.007798442151397467, 0.03001384064555168, 0.04049365967512131, 0.0004700150166172534
279755, 0.9274576902389526, -0.5934219360351562, 0.07294079661369324, 0.46099794240825664, -0.5734326535120431, -10.977269602880085, -1.581974983215332, -0.7054985165596008, 0.05747505649924278, -0.6254350577726392, 0.5328735142681751, -7.895615437011459, -2.408923625946045, -0.9696130752563477, -0.3549893796443939, -0.968950629234314, 2.6010799407958984, 0.10574714094400406, 0.6150320768356323, 0.15476633608341217, 0.19272372126579285, 0.07348239421844482, 0.07958278059959412, 0.08878467231988907, -0.0005837839562445879, 0.007798442151397467, 0.03001384064555168, 0.04049365967512131, 0.00046706580906175077
279765, 0.9274601340293884, -0.593421220779419, 0.07294788956642151, 0.4692424906415886, -0.5767869666515821, -10.979530009766961, -1.5819709300994873, -0.7055069208145142, 0.05745648220181465, -0.6245975873696081, 0.5337611012281513, -7.9011528128936925, -2.4095301628112793, -0.9705064296722412, -0.35639485716819763, -0.968954861164093, 2.626783847808838, 0.1057833731174469, 0.6151323914527893, 0.15480396151542664, 0.19274751842021942, 0.07347161322832108, 0.07958146184682846, 0.08758038282394409, -0.0006034967955201864, 0.007795165758579969, 0.030027000233530998, -0.04764733836054802, 0.0005150921060703695
279775, 0.927457332611084, -0.5934106707572937, 0.07291097939014435, 0.4566403606303029, -0.5766026593266815, -10.970003637177765, -1.5819681882858276, -0.7054997086524963, 0.0574459545314312, -0.6254902566469986, 0.5320700918349814, -7.895879704441533, -2.4097023010253906, -0.9707276821136475, -0.3573586344718933, -0.9689053297042847, 2.6134560108184814, 0.10582809150218964, 0.6152077913284302, 0.15483811497688293, 0.19277122616767883, 0.07345963269472122, 0.07957988977432251, 0.05454590544104576, -0.0006996452575549483, 0.007792741525918245, 0.030033117160201073, -0.05773613974452019, 0.0006531747058033943
279785, 0.9274564385414124, -0.593419075012207, 0.07292287796735764, 0.45732727838174536, -0.5867345471745864, -10.976698555646069, -1.5819801092147827, -0.7055097818374634, 0.057458169758319855, -0.6278049718779575, 0.5352777438754401, -7.895668297227414, -2.4096670150756836, -0.9705254435539246, -0.3580995202064514, -0.968820333480835, 2.6058402061462402, 0.105874203145504, 0.6152811646461487, 0.1548689752817154, 0.19279491901397705, 0.07344646751880646, 0.07957594096660614, 0.053663093596696854, -0.000762332056183368, 0.007791515439748764, 0.030038800090551376, -0.0572286956012249, 0.0009360894910059869
279795, 0.9274537563323975, -0.5934199094772339, 0.07293170690536499, 0.45736502247256744, -0.5844169100349461, -10.975970311854413, -1.5819807052612305, -0.705502450466156, 0.05747256428003311, -0.6327118662809025, 0.5304380256726802, -7.892918087644268, -2.410010576248169, -0.9710817933082581, -0.360020250082016, -0.9687913656234741, 2.620120048522949, 0.10591819882392883, 0.6153678894042969, 0.15489190816879272, 0.19281864166259766, 0.0734328106045723, 0.07957237958908081, 0.08112744987010956, -0.00066136394161731, 0.0077914041467010975, 0.030044326558709145, -0.12033458054065704, 0.0010288598714396358
279805, 0.9274640679359436, -0.5934244990348816, 0.07292633503675461, 0.4588895729701864, -0.5816144726985613, -10.967247507820773, -1.5819796323776245, -0.7054980993270874, 0.05747479572892189, -0.6280421642970698, 0.5218679573132476, -7.899997747329756, -2.409620761871338, -0.9699257612228394, -0.3607213497161865, -0.9686311483383179, 2.589656114578247, 0.1059662401676178, 0.615439236164093, 0.15490326285362244, 0.1928422898054123, 0.07341838628053665, 0.07956825941801071, 0.08009748160839081, -0.0005042212433181703, 0.007791857235133648, 0.030050603672862053, -0.11900465190410614, 0.001063583418726921
279815, 0.9274415373802185, -0.5934311747550964, 0.07291460782289505, 0.46192903906220895, -0.589574797495743, -10.972965950301843, -1.5819718837738037, -0.7055052518844604, 0.05747292935848236, -0.6259642105894775, 0.5334757265690371, -7.892560299409597, -2.409569501876831, -0.9701845645904541, -0.36306101083755493, -0.968571126461029, 2.6086959838867188, 0.1060030534863472, 0.6155529618263245, 0.15490426123142242, 0.19286608695983887, 0.07340166717767715, 0.07956426590681076, 0.17787952721118927, -0.0003388783079572022, 0.007790545001626015, 0.030058404430747032, -0.12112241983413696, 0.0010041689965873957
279825, 0.9274612069129944, -0.5934257507324219, 0.0729309469461441, 0.4655702374140175, -0.5802824166135281, -10.970264673383852, -1.5819745063781738, -0.7055062651634216, 0.057462699711322784, -0.6279934201589721, 0.5311574220209252, -7.893428375104936, -2.4089441299438477, -0.9695296883583069, -0.36403077840805054, -0.9684267640113831, 2.5868000984191895, 0.10604491084814072, 0.6156576871871948, 0.15488599240779877, 0.19288982450962067, 0.07338887453079224, 0.07955826073884964, 0.17552882432937622, -0.00027874147053807974, 0.007788755930960178, 0.030067702755331993, -0.11964074522256851, 0.0008645280613563955
279835, 0.9274494051933289, -0.5934267640113831, 0.07290700823068619, 0.46690622649088165, -0.5803728832621005, -10.98222479824901, -1.5819754600524902, -0.7055127620697021, 0.05745835602283478, -0.622952723301992, 0.5272179477112502, -7.896912484397553, -2.409064292907715, -0.9699655771255493, -0.3664107024669647, -0.9683879613876343, 2.6134560108184814, 0.10608196258544922, 0.6157750487327576, 0.1548652946949005, 0.19291362166404724, 0.07337716221809387, 0.07955285161733627, 0.1415313482284546, -0.0002745864330790937, 0.007783898152410984, 0.03007538802921772, -0.14995957911014557, 0.0005428932490758598
279845, 0.9274434447288513, -0.5934236645698547, 0.07290422916412354, 0.46815641501002814, -0.584769556744817, -10.985622038013336, -1.5819796323776245, -0.7055103182792664, 0.057452116161584854, -0.6271163366095228, 0.5324702688608625, -7.892421703520097, -2.4098927974700928, -0.9711788296699524, -0.3701961636543274, -0.9684346914291382, 2.6382079124450684, 0.10612558573484421, 0.6158801317214966, 0.1548231989145279, 0.19293734431266785, 0.07336637377738953, 0.07954908162355423, 0.13977551460266113, -0.0003061007591895759, 0.007781426887959242, 0.03008394129574299, -0.14814847707748413, 0.0002871802425943315
279855, 0.92745041847229, -0.5934252738952637, 0.07291329652070999, 0.4665593947560576, -0.5828552630958939, -10.98722627699832, -1.5819679498672485, -0.7054941058158875, 0.057448070496320724, -0.6286199060374423, 0.5355624301802493, -7.898240820383625, -2.409902334213257, -0.9705061912536621, -0.37033504247665405, -0.9683132171630859, 2.6010799407958984, 0.10617826879024506, 0.6159473061561584, 0.1547512263059616, 0.19296088814735413, 0.07335720211267471, 0.07954563945531845, 0.0462135374546051, -0.0003372712235432118, 0.007781426887959242, 0.03008394129574299, -0.14814847707748413, 0.0001914923486765474
279865, 0.9274558424949646, -0.5934302806854248, 0.07291930168867111, 0.4595479953842034, -0.5801055710454364, -10.96901547431903, -1.5819754600524902, -0.7054995894432068, 0.057471781969070435, -0.6270054892256671, 0.537795691793292, -7.902002253044019, -2.4106783866882324, -0.9716893434524536, -0.3729283809661865, -0.9683594107627869, 2.6382079124450684, 0.10622355341911316, 0.6160500049591064, 0.15470008552074432, 0.19298459589481354, 0.07335264980792999, 0.07954024523496628, 0.04560031369328499, -0.0003976816078647971, 0.007772939279675484, 0.030100388452410698, -0.1273178905248642, -0.0001291078224312514
279875, 0.9274430871009827, -0.5934141278266907, 0.07291579991579056, 0.4565435742685301, -0.5817168398533852, -10.977599998488104, -1.5819928646087646, -0.7055084705352783, 0.05746273696422577, -0.6252351072751895, 0.5234825302184447, -7.896370833595347, -2.410548686981201, -0.9706384539604187, -0.3714618384838104, -0.9682112336158752, 2.595367908477783, 0.10627701878547668, 0.6161160469055176, 0.15463995933532715, 0.193008154630661, 0.07334822416305542, 0.0795333981513977, 0.0308257807046175, -0.0005666867946274579, 0.007767349947243929, 0.030108269304037094, -0.040969207882881165, -0.00037903428892605007
279885, 0.9274603128433228, -0.5934192538261414, 0.07293528318405151, 0.4628792103154694, -0.5768173488386878, -10.979700569971596, -1.5819816589355469, -0.7055150866508484, 0.05744974687695503, -0.6241179723564445, 0.5356364531330371, -7.899521278366572, -2.4110701084136963, -0.9714242815971375, -0.3723219633102417, -0.968217670917511, 2.628688097000122, 0.10631782561540604, 0.6162286400794983, 0.1546177715063095, 0.19303195178508759, 0.0733436569571495, 0.07952924817800522, 0.030407806858420372, -0.0006818474503234029, 0.00776108680292964, 0.030115416273474693, -0.0402827262878418, -0.0004388412635307759
279895, 0.9274714589118958, -0.5934234857559204, 0.07292156666517258, 0.4620692728681769, -0.5777567852080665, -10.97496773828769, -1.5819624662399292, -0.7055062651634216, 0.057466909289360046, -0.628459672524141, 0.5327774043360307, -7.893142064494135, -2.4108824729919434, -0.9712094664573669, -0.3709011673927307, -0.9681297540664673, 2.603935956954956, 0.10636347532272339, 0.6163246631622314, 0.1546071171760559, 0.19305568933486938, 0.07334009557962418, 0.07952455431222916, -0.033502478152513504, -0.0007309959037229419, 0.00775518361479044, 0.030122006312012672, -0.004369243513792753, -0.00023598485859110951
279905, 0.9274538159370422, -0.5934115052223206, 0.07294441014528275, 0.43784685366034504, -0.5677326879086309, -10.966185840791395, -1.5819810628890991, -0.7055100202560425, 0.057449329644441605, -0.6208093099585762, 0.5347405770978639, -7.8948889630038215, -2.4132089614868164, -0.9739487171173096, -0.37286508083343506, -0.9683113694190979, 2.685807943344116, 0.10640410333871841, 0.6164303421974182, 0.15461786091327667, 0.19307948648929596, 0.07333918660879135, 0.07951943576335907, -0.03305681049823761, -0.0007917159236967564, 0.007747780065983534, 0.030125310644507408, -0.0043085915967822075, -2.8237169317435473e-05
279915, 0.9274566769599915, -0.5934188365936279, 0.07291509211063385, 0.46168302139771433, -0.5785692597206946, -10.96981936482314, -1.5819686651229858, -0.7055050134658813, 0.05746091157197952, -0.6212091337464248, 0.5307981202838334, -7.894111407854309, -2.4128801822662354, -0.971119225025177, -0.36970025300979614, -0.9680577516555786, 2.581088066101074, 0.10646031051874161, 0.6164506673812866, 0.15462543070316315, 0.19310297071933746, 0.07333622127771378, 0.07951665669679642, -0.1034090518951416, -0.0007697562105022371, 0.007738642394542694, 0.030129481106996536, 0.020504921674728394, 0.0002614081895444542
279925, 0.9274511337280273, -0.5934149026870728, 0.07292330265045166, 0.45429195347956514, -0.5801240693126886, -10.971978790134502, -1.5819787979125977, -0.7055156230926514, 0.057445183396339417, -0.6248782703116276, 0.5335717763244929, -7.891718886532466, -2.411634683609009, -0.971634566783905, -0.36784693598747253, -0.9679923057556152, 2.591559886932373, 0.10647666454315186, 0.6165803670883179, 0.15465928614139557, 0.19312691688537598, 0.07333498448133469, 0.07951299846172333, -0.1022830456495285, -0.0006619959021918476, 0.007738642394542694, 0.030129481106996536, 0.020504921674728394, 0.0004137489013373852
279935, 0.927450954914093, -0.5934176445007324, 0.07293738424777985, 0.4616590914787976, -0.575353397910817, -10.976825248641973, -1.5819867849349976, -0.7055023908615112, 0.05747474357485771, -0.6241594843471804, 0.533395501045419, -7.899008159125772, -2.4114959239959717, -0.9719125628471375, -0.36694082617759705, -0.9679446220397949, 2.6115522384643555, 0.10650632530450821, 0.6166953444480896, 0.15469712018966675, 0.19315080344676971, 0.07333525270223618, 0.07951028645038605, -0.10466853529214859, -0.0004826057702302933, 0.007728388532996178, 0.030135758221149445, -0.029522061347961426, 0.0005599149153567851
279945, 0.9274585247039795, -0.5934150218963623, 0.07293352484703064, 0.46303807284425014, -0.5833385653325251, -10.989331402862463, -1.5819637775421143, -0.7055054903030396, 0.05746147409081459, -0.6258157062458184, 0.5358927102375333, -7.898504728226039, -2.41096830368042, -0.9717159271240234, -0.3660622239112854, -0.9678650498390198, 2.600128173828125, 0.10653749108314514, 0.6168038845062256, 0.15473653376102448, 0.19317466020584106, 0.07333525270223618, 0.07950671017169952, -0.10342361778020859, -0.0002950560301542282, 0.007726994343101978, 0.030138006433844566, -0.02925037406384945, 0.0006276825442910194
279955, 0.9274543523788452, -0.593421995639801, 0.07291851937770844, 0.45887766014626546, -0.5726154214420092, -10.97410426767626, -1.5819766521453857, -0.7055051326751709, 0.05745872110128403, -0.6245055021417719, 0.5332331129003194, -7.897894237658435, -2.4096100330352783, -0.9708643555641174, -0.3654464781284332, -0.9677360653877258, 2.5782320499420166, 0.10656605660915375, 0.616915225982666, 0.1547764390707016, 0.1931985318660736, 0.07333391159772873, 0.07950417697429657, -0.09149161726236343, -0.00011020599049516022, 0.007725463714450598, 0.030140016227960587, -0.0395737923681736, 0.000660640187561512
279965, 0.9274545907974243, -0.5934193134307861, 0.07290691882371902, 0.4573639501846826, -0.5782798553956923, -10.970829194905914, -1.5819758176803589, -0.7054976224899292, 0.05744330212473869, -0.6225301824411581, 0.5346451733686024, -7.895758057914176, -2.4089767932891846, -0.9709268808364868, -0.36493754386901855, -0.9676744341850281, 2.598223924636841, 0.10658825933933258, 0.6170365810394287, 0.15481646358966827, 0.19322244822978973, 0.07332912087440491, 0.07950495928525925, -0.09022215753793716, -2.9327105949050747e-05, 0.007725124713033438, 0.030144499614834785, -0.03905222564935684, 0.000645163469016552
279975, 0.9274529218673706, -0.5934232473373413, 0.07292508333921432, 0.46094755227090567, -0.580369689812386, -10.988662718803623, -1.5819791555404663, -0.7055133581161499, 0.05744873359799385, -0.6243521421776645, 0.5343012791744286, -7.897622430172714, -2.4093265533447266, -0.9715456962585449, -0.36349382996559143, -0.9676633477210999, 2.6210720539093018, 0.10661235451698303, 0.6171517372131348, 0.15485545992851257, 0.19324633479118347, 0.07332904636859894, 0.07950645685195923, -0.1808611899614334, 2.4506638510501944e-05, 0.0077250078320503235, 0.030148513615131378, -0.03489616885781288, 0.0006072605028748512
279985, 0.927467405796051, -0.5934169292449951, 0.07293938100337982, 0.45962241252195174, -0.5777668525962838, -10.97016125194527, -1.5819727182388306, -0.7055078148841858, 0.05747191607952118, -0.6274069629069065, 0.5299965745641373, -7.892659930908909, -2.410243272781372, -0.9727200865745544, -0.3618772625923157, -0.9676898121833801, 2.6363039016723633, 0.10664031654596329, 0.6172547340393066, 0.15489156544208527, 0.19327019155025482, 0.07332700490951538, 0.07950648665428162, -0.17863212525844574, 5.2241994126234204e-05, 0.007725317496806383, 0.03015245497226715, -0.03435545787215233, 0.0006813985528424382
279995, 0.9274553656578064, -0.5934180617332458, 0.07293709367513657, 0.4646922856653049, -0.5804273307800258, -10.981658708790409, -1.5819668769836426, -0.7055079340934753, 0.057477012276649475, -0.625080273688211, 0.527113496809875, -7.893434284242625, -2.409381628036499, -0.9711788892745972, -0.3618929982185364, -0.967549204826355, 2.583944082260132, 0.10667621344327927, 0.617328405380249, 0.1549256443977356, 0.1932939738035202, 0.0733245462179184, 0.07950682938098907, -0.10228262096643448, 0.00013576666242443025, 0.007725317496806383, 0.03015245497226715, -0.03435545787215233, 0.0007120123482309282
280005, 0.9274658560752869, -0.593426525592804, 0.07293101400136948, 0.45763682626898217, -0.5774349577128532, -10.977087089899827, -1.5819703340530396, -0.7054916024208069, 0.05746699124574661, -0.6239092973906069, 0.5360095129688034, -7.899297378225674, -2.409677267074585, -0.9717803001403809, -0.3610610067844391, -0.9675367474555969, 2.620120048522949, 0.10669354349374771, 0.617450475692749, 0.15496030449867249, 0.19331790506839752, 0.07332111150026321, 0.07950785011053085, -0.10102555900812149, 0.00015722773969173431, 0.007722178008407354, 0.030161255970597267, -0.01242273673415184, 0.0007726583280600607
280015, 0.9274553656578064, -0.5934315919876099, 0.07292160391807556, 0.45870972430705, -0.5691291003528249, -10.977460586368116, -1.581985354423523, -0.7055047750473022, 0.05745270848274231, -0.6233040860068038, 0.5329741449874348, -7.902794708872523, -2.409398317337036, -0.9718416929244995, -0.36065009236335754, -0.9674872756004333, 2.6058402061462402, 0.10671760141849518, 0.6175601482391357, 0.15499380230903625, 0.19334179162979126, 0.07331755757331848, 0.0795096755027771, -0.08564109355211258, 0.00011240915046073496, 0.007722178008407354, 0.030161255970597267, -0.01242273673415184, 0.0008581679430790246
280025, 0.9274604916572571, -0.5934192538261414, 0.07295223325490952, 0.4609165589602656, -0.581209481675387, -10.985185976521109, -1.5819672346115112, -0.7054997086524963, 0.057479988783597946, -0.621447785237068, 0.5337549501823844, -7.89608301405496, -2.411181926727295, -0.9737584590911865, -0.3585054874420166, -0.9675612449645996, 2.657248020172119, 0.10674221068620682, 0.6176667809486389, 0.15502437949180603, 0.193365678191185, 0.0733126774430275, 0.07951301336288452, -0.08457358181476593, 7.68130412325263e-05, 0.0077174948528409, 0.030170952901244164, 0.05740932747721672, 0.0006464848411269486
280035, 0.9274534583091736, -0.5934348702430725, 0.0729220062494278, 0.46129139430247756, -0.5789701896152053, -10.974721126462775, -1.5819717645645142, -0.7054997086524963, 0.05747484043240547, -0.6209286432552973, 0.5360370244133321, -7.891048267441453, -2.410731315612793, -0.9727395176887512, -0.35817474126815796, -0.9674612283706665, 2.5972719192504883, 0.10677933692932129, 0.6177259683609009, 0.15504546463489532, 0.19338944554328918, 0.07330658286809921, 0.0795138031244278, -0.16121360659599304, -2.816582082232344e-06, 0.00771320890635252, 0.03017563931643963, -0.042168643325567245, 0.0004733405075967312
280045, 0.9274584054946899, -0.5934250354766846, 0.07293616235256195, 0.46530894927869126, -0.5828896563054968, -10.984833681178394, -1.581965446472168, -0.7054980397224426, 0.05744241550564766, -0.6251159149178394, 0.5366166525929827, -7.890571790320626, -2.4116382598876953, -0.9738646745681763, -0.35666128993034363, -0.9674835801124573, 2.6363039016723633, 0.1068037822842598, 0.6178299784660339, 0.15506814420223236, 0.19341333210468292, 0.07330159097909927, 0.07951288670301437, -0.1592869758605957, -9.875473188003525e-05, 0.007708869408816099, 0.03018091432750225, -0.041555196046829224, 0.00032357205054722726
280055, 0.9274501800537109, -0.5934249758720398, 0.07293055951595306, 0.4583828160388, -0.5857585735936084, -10.971277481422192, -1.581972360610962, -0.7055110931396484, 0.057470615953207016, -0.6267289879612772, 0.5312469256904535, -7.894808513955806, -2.4122085571289062, -0.9747533202171326, -0.35595017671585083, -0.9674910306930542, 2.6296401023864746, 0.1068372055888176, 0.6179069876670837, 0.15508803725242615, 0.19343715906143188, 0.07329612225294113, 0.07951131463050842, -0.10085570067167282, -0.00017407888663001359, 0.007708869408816099, 0.03018091432750225, -0.041555196046829224, 0.00019297887047287077
280065, 0.9274547100067139, -0.5934252142906189, 0.07290071249008179, 0.46885784870792535, -0.5738005312574046, -10.985165541552663, -1.581979751586914, -0.7054994106292725, 0.057467833161354065, -0.6276993155147528, 0.5308235061399671, -7.901643758598271, -2.4123570919036865, -0.974864661693573, -0.35479581356048584, -0.9674587845802307, 2.6172640323638916, 0.10687519609928131, 0.6179591417312622, 0.1551000028848648, 0.19346092641353607, 0.07328981906175613, 0.0795077458024025, -0.09958615154027939, -0.00015844751033000648, 0.007692218758165836, 0.030191797763109207, 0.05003144219517708, -5.1321265345904976e-05
280075, 0.9274726510047913, -0.5934064984321594, 0.07291863858699799, 0.45870132308431566, -0.5900628893497526, -10.98320454787621, -1.5819618701934814, -0.7054979205131531, 0.057470716536045074, -0.6253974320429874, 0.5306765597962908, -7.902256817351257, -2.4115664958953857, -0.9733818769454956, -0.35477718710899353, -0.9673393368721008, 2.589656114578247, 0.10691134631633759, 0.6180200576782227, 0.15510796010494232, 0.19348472356796265, 0.07328318059444427, 0.07950494438409805, -0.11248219758272171, -0.00028473377460613847, 0.007685023359954357, 0.03019588068127632, 0.035179100930690765, 3.0266945032053627e-05
280085, 0.9274650812149048, -0.5934118628501892, 0.0729379802942276, 0.46243174018808847, -0.5787202552540407, -10.982090867488063, -1.581972360610962, -0.7055022716522217, 0.05746953561902046, -0.6240904456247935, 0.535404677975464, -7.894987665008814, -2.411689519882202, -0.9738702774047852, -0.353569895029068, -0.967322587966919, 2.618216037750244, 0.10692944377660751, 0.6181346774101257, 0.15512199699878693, 0.19350866973400116, 0.0732751339673996, 0.07950156182050705, -0.11112856864929199, -0.000318254780722782, 0.0076764728873968124, 0.03020075522363186, 0.03464643284678459, 0.0001050331920851022
280095, 0.927454948425293, -0.5934303402900696, 0.07291565835475922, 0.4622607841711577, -0.5802911639857768, -10.975591422866911, -1.5819803476333618, -0.7055067420005798, 0.05745720863342285, -0.6286009772296791, 0.528491273417842, -7.89829592881513, -2.4105403423309326, -0.973171055316925, -0.3533432185649872, -0.967240571975708, 2.587752103805542, 0.10695155709981918, 0.618239164352417, 0.15512937307357788, 0.19353258609771729, 0.07326771318912506, 0.07949785888195038, -0.13804949820041656, -0.00023639352002646774, 0.0076764728873968124, 0.03020075522363186, 0.03464643284678459, 0.0001476052129874006
280105, 0.9274605512619019, -0.5934271812438965, 0.07293665409088135, 0.4553490233295689, -0.581649650783902, -10.9707136307717, -1.58197021484375, -0.7054948806762695, 0.057458359748125076, -0.6228709741316696, 0.5361352031295894, -7.892254392232154, -2.4113147258758545, -0.9740880131721497, -0.3513343930244446, -0.9672467708587646, 2.6315441131591797, 0.10696925967931747, 0.6183536648750305, 0.1551423966884613, 0.1935565322637558, 0.07326113432645798, 0.07949403673410416, -0.13638679683208466, -0.00016479266923852265, 0.00766456313431263, 0.030208289623260498, 0.03713063523173332, 0.0005628102808259428
280115, 0.9274477362632751, -0.5934183597564697, 0.0729399025440216, 0.4569785062394539, -0.5814601016019765, -10.971213154347883, -1.5819602012634277, -0.7055045366287231, 0.05746816471219063, -0.6276736412297154, 0.5304657028178212, -7.900698708254077, -2.4115209579467773, -0.9745523929595947, -0.3496900796890259, -0.9672249555587769, 2.6191680431365967, 0.10699307918548584, 0.6184517741203308, 0.1551412045955658, 0.19358044862747192, 0.07325725257396698, 0.07948892563581467, -0.15238440036773682, -0.000278103252639994, 0.00766456313431263, 0.030208289623260498, 0.03713063523173332, 0.0006891331286169589
280125, 0.9274501800537109, -0.5934171080589294, 0.0729353204369545, 0.45981762922895386, -0.5747033900979375, -10.974459969912754, -1.5819767713546753, -0.7055044174194336, 0.057453446090221405, -0.6277779180410419, 0.5289068318858483, -7.895852935911332, -2.415341854095459, -0.979220449924469, -0.3440287709236145, -0.9674163460731506, 2.7105600833892822, 0.10702069848775864, 0.6185393333435059, 0.15513475239276886, 0.19360433518886566, 0.07325250655412674, 0.07948671281337738, -0.15047378838062286, -0.0004318447026889771, 0.007660438772290945, 0.03021170198917389, 0.008112460374832153, 0.00092001270968467
280135, 0.9274606704711914, -0.5934196710586548, 0.07293936610221863, 0.46916702346310807, -0.5770766488272443, -10.985667021937852, -1.5819751024246216, -0.7055044770240784, 0.057472094893455505, -0.6277465224739656, 0.5285952620160401, -7.891081981834145, -2.415175199508667, -0.9765520095825195, -0.34407222270965576, -0.9672462940216064, 2.598223924636841, 0.10707470774650574, 0.6184283494949341, 0.15504299104213715, 0.19362784922122955, 0.07324999570846558, 0.07948452234268188, -0.23697584867477417, -0.0007901174831204116, 0.007660438772290945, 0.03021170198917389, 0.008112460374832153, 0.0009168421383947134
280145, 0.9274542331695557, -0.5934171676635742, 0.0729384794831276, 0.4555208653654569, -0.5830668922829432, -10.964433503356128, -1.5819803476333618, -0.7055163383483887, 0.057475656270980835, -0.6266854603217267, 0.5358792036232956, -7.896609709829506, -2.4159364700317383, -0.9775601029396057, -0.3405749201774597, -0.9672399759292603, 2.63535213470459, 0.10709431022405624, 0.618522584438324, 0.1549626886844635, 0.19365179538726807, 0.07324504107236862, 0.07948453724384308, -0.23422805964946747, -0.001018611597828567, 0.007647890597581863, 0.03021414764225483, 0.060205329209566116, 0.0008704679785296321
280155, 0.9274454712867737, -0.5934162735939026, 0.07292468845844269, 0.46065698105526287, -0.585896478486859, -10.981984382647658, -1.5819697380065918, -0.7055138945579529, 0.05744590982794762, -0.6227551234258663, 0.5334755509161937, -7.895390953067734, -2.4142704010009766, -0.9757547974586487, -0.3421478867530823, -0.9671177864074707, 2.5801358222961426, 0.1071198433637619, 0.6185957789421082, 0.15484677255153656, 0.1936757117509842, 0.0732397511601448, 0.07948610186576843, -0.20679925382137299, -0.0011783274821937084, 0.007647890597581863, 0.03021414764225483, 0.060205329209566116, 0.0008284789510071278
280165, 0.9274492263793945, -0.5934277176856995, 0.0729016661643982, 0.466548527103562, -0.576788949580731, -10.977794814877772, -1.5819724798202515, -0.7055027484893799, 0.05745537206530571, -0.6180801552108169, 0.5337348986138295, -7.894178340836988, -2.4137656688690186, -0.9760324954986572, -0.34067487716674805, -0.967081606388092, 2.6086959838867188, 0.10712829977273941, 0.6187123656272888, 0.1547871083021164, 0.1936996877193451, 0.07323496043682098, 0.07948926836252213, -0.2044127881526947, -0.0011093802750110626, 0.007632544729858637, 0.03021538257598877, 0.06900280714035034, 0.0007070498540997505
280175, 0.9274454116821289, -0.5934329628944397, 0.07291074097156525, 0.4561738798320205, -0.5837719772783032, -10.971409757308749, -1.5819734334945679, -0.7055054903030396, 0.057453177869319916, -0.6224874277600854, 0.5306911402117294, -7.900037885997542, -2.413856267929077, -0.9765139818191528, -0.3377760648727417, -0.9670570492744446, 2.6191680431365967, 0.10714101791381836, 0.6188207864761353, 0.1547144055366516, 0.193723663687706, 0.0732295885682106, 0.07949316501617432, -0.2726127803325653, -0.0008432512986473739, 0.007632544729858637, 0.03021538257598877, 0.06900280714035034, 0.0006954455748200417
280185, 0.9274536371231079, -0.5934275388717651, 0.07293234765529633, 0.4574183174610319, -0.5806714359030423, -10.97364914779432, -1.581965684890747, -0.7055066823959351, 0.05745159089565277, -0.6299109580123466, 0.5370858702108876, -7.895237869219893, -2.413026809692383, -0.976166307926178, -0.33719900250434875, -0.9670008420944214, 2.5991761684417725, 0.1071569100022316, 0.6189203858375549, 0.15462714433670044, 0.1937476098537445, 0.07322411984205246, 0.07949792593717575, -0.2691972255706787, -0.000663747894577682, 0.007625887170433998, 0.030216576531529427, 0.00088318350026384, 0.0007309187785722315
280195, 0.9274416565895081, -0.5934311747550964, 0.07292478531599045, 0.45957267622491255, -0.5852998191367931, -10.976759344081438, -1.5819789171218872, -0.7055033445358276, 0.057456064969301224, -0.6241721013844105, 0.5363187704197117, -7.899876354683869, -2.4145255088806152, -0.9776801466941833, -0.3329180181026459, -0.9670222401618958, 2.6477279663085938, 0.10717111825942993, 0.6190252900123596, 0.1545572429895401, 0.19377155601978302, 0.07321878522634506, 0.07950182259082794, -0.2340206801891327, -0.0004247861506883055, 0.00761206541210413, 0.030214961618185043, 0.028911782428622246, 0.000822277448605746
280205, 0.9274603128433228, -0.593421995639801, 0.07292220741510391, 0.4633391800522551, -0.5789485867186954, -10.98282000658876, -1.5819674730300903, -0.7055169343948364, 0.05745502933859825, -0.6240955298321357, 0.5391950572609687, -7.887484861442741, -2.412660598754883, -0.9756410717964172, -0.33511462807655334, -0.9669042825698853, 2.573472023010254, 0.1071920096874237, 0.6191033124923706, 0.1544303148984909, 0.19379547238349915, 0.07321680337190628, 0.07950626313686371, -0.23106902837753296, -0.0003560175246093422, 0.007605875842273235, 0.030214088037610054, 0.028446748852729797, 0.0008477146038785577
280215, 0.9274593591690063, -0.5934215188026428, 0.07292820513248444, 0.4577236851098669, -0.5802410316264854, -10.983302537299798, -1.58198082447052, -0.7055046558380127, 0.05746937170624733, -0.6238305367433831, 0.529173228278836, -7.899069581240263, -2.413269281387329, -0.9764066338539124, -0.33272287249565125, -0.9668954014778137, 2.6277360916137695, 0.10719600319862366, 0.6192259788513184, 0.15438033640384674, 0.19381944835186005, 0.07321509718894958, 0.0795108750462532, -0.2317250818014145, -0.0003225794353056699, 0.00759861571714282, 0.030212925747036934, -0.014436032623052597, 0.000855968042742461
280225, 0.9274474382400513, -0.5934230089187622, 0.0729132667183876, 0.4573622795082831, -0.585320917384422, -10.97603830015428, -1.5819834470748901, -0.7054948806762695, 0.05748489126563072, -0.6259528954520579, 0.5269006151845872, -7.898193930789126, -2.4131417274475098, -0.9767422676086426, -0.3314191699028015, -0.9668688178062439, 2.6134560108184814, 0.10720624029636383, 0.6193381547927856, 0.15431120991706848, 0.19384342432022095, 0.0732143446803093, 0.07951533794403076, -0.22880245745182037, -0.000366560067050159, 0.007592278532683849, 0.030210139229893684, -0.014358586631715298, 0.0008706002263352275
280235, 0.9274501800537109, -0.5934218168258667, 0.0729181095957756, 0.46406121645933357, -0.5782895821022294, -10.978204679003568, -1.581977128982544, -0.7055057883262634, 0.057444650679826736, -0.6283660385557064, 0.536235587557087, -7.896654916275294, -2.4132285118103027, -0.977150559425354, -0.3305329978466034, -0.9668442010879517, 2.6172640323638916, 0.10722450911998749, 0.6194390654563904, 0.1542549431324005, 0.19386737048625946, 0.07321425527334213, 0.07951873540878296, -0.18697907030582428, -0.0006042386521585286, 0.007584282662719488, 0.030207308009266853, -0.04593471437692642, 0.0006204730016179383
280245, 0.9274600148200989, -0.593424379825592, 0.0729389414191246, 0.46854099856601183, -0.5822576523078169, -10.983070912910327, -1.5819700956344604, -0.7055060267448425, 0.05746832117438316, -0.6233199100918652, 0.532103176124707, -7.896293695387052, -2.411168098449707, -0.9752987027168274, -0.3330046236515045, -0.966722309589386, 2.566807985305786, 0.10724824666976929, 0.6195299625396729, 0.15420465171337128, 0.19389130175113678, 0.07321298867464066, 0.07952256500720978, -0.18454204499721527, -0.0007353166583925486, 0.007573300041258335, 0.030206359922885895, -0.045272354036569595, 0.00033702270593494177
280255, 0.9274661540985107, -0.5934641361236572, 0.07299251854419708, 0.4809244201707191, -0.5860088616119583, -10.975410964900442, -1.581971287727356, -0.7054974436759949, 0.0574551597237587, -0.6281554459795896, 0.5334607655703962, -7.907229599383581, -2.4116499423980713, -0.9760205149650574, -0.3329714834690094, -0.9667147397994995, 2.6239278316497803, 0.10726215690374374, 0.6196512579917908, 0.15421612560749054, 0.19391527771949768, 0.07320728152990341, 0.07952670007944107, -0.1220799908041954, -0.0006022040033712983, 0.0075658997520804405, 0.030202142894268036, -0.12244610488414764, 0.00027601965120993555
280265, 0.9274534583091736, -0.5934386849403381, 0.07290885597467422, 0.4682048118308684, -0.5841571248958815, -10.974834970815685, -1.5819647312164307, -0.7055119872093201, 0.05744931101799011, -0.6263586025852665, 0.5329923267957781, -7.896363860987248, -2.4097440242767334, -0.9749148488044739, -0.33481958508491516, -0.9666085839271545, 2.568711996078491, 0.10728523880243301, 0.6197603940963745, 0.15423303842544556, 0.1939392238855362, 0.07320305705070496, 0.07952965050935745, -0.12049166858196259, -0.0005383440293371677, 0.007554276380687952, 0.030197544023394585, -0.12100283801555634, 0.0002248068922199309
280275, 0.9274585843086243, -0.5934260487556458, 0.07292108237743378, 0.4596782786749742, -0.5735133639431069, -10.966608157823792, -1.581973910331726, -0.7055045962333679, 0.05745624750852585, -0.6223520103582049, 0.5350022414716875, -7.898221844958775, -2.4091897010803223, -0.9750506281852722, -0.33480650186538696, -0.9665648341178894, 2.5991761684417725, 0.10730604827404022, 0.6198784708976746, 0.15426385402679443, 0.1939631700515747, 0.07319864630699158, 0.07953230291604996, -0.08718612045049667, -0.0005784771055914462, 0.007542482111603022, 0.0301949642598629, -0.038260165601968765, 0.0002590064541436732
280285, 0.9274608492851257, -0.593423068523407, 0.07291276752948761, 0.4708378786655505, -0.5790820066820572, -10.983370651853564, -1.5819659233093262, -0.705510139465332, 0.05745998024940491, -0.6257936785019852, 0.5324623625238019, -7.887624265120421, -2.408499240875244, -0.9748499393463135, -0.3348250091075897, -0.9665019512176514, 2.5934641361236572, 0.10733278095722198, 0.6199877858161926, 0.15429715812206268, 0.19398708641529083, 0.07319579273462296, 0.07953470200300217, -0.08609487861394882, -0.0005786961992271245, 0.007530639413744211, 0.03019273653626442, -0.03777376189827919, 0.0002942281716968864
280295, 0.9274486899375916, -0.5934300422668457, 0.0728994756937027, 0.4602636396643368, -0.5809436490010569, -10.96976884543636, -1.5819706916809082, -0.7055113315582275, 0.05745883658528328, -0.6321635036970077, 0.5292005117778729, -7.898578883690054, -2.406808376312256, -0.973764181137085, -0.33543989062309265, -0.9663849472999573, 2.566807985305786, 0.10736049711704254, 0.6200968623161316, 0.1543336808681488, 0.19401100277900696, 0.07319172471761703, 0.07953660935163498, -0.0462125688791275, -0.00044771641842089593, 0.007530639413744211, 0.03019273653626442, -0.03777376189827919, 0.00027235926245339215
280305, 0.9274614453315735, -0.5934221744537354, 0.07292686402797699, 0.46108832882098216, -0.5865779371396798, -10.981249549592322, -1.5819674730300903, -0.7055007219314575, 0.05747401341795921, -0.6283254212057445, 0.5336962201604365, -7.896361625762189, -2.406580686569214, -0.9740867614746094, -0.3358103930950165, -0.9663528800010681, 2.6029839515686035, 0.10738314688205719, 0.6202173233032227, 0.1543731987476349, 0.19403494894504547, 0.0731876865029335, 0.07953605055809021, -0.04563607648015022, -0.0003472358512226492, 0.007512165233492851, 0.030188338831067085, -0.07523056119680405, 0.00022441741020884365
280315, 0.9274438619613647, -0.5934196710586548, 0.07291131466627121, 0.45876871042147005, -0.5823486006206906, -10.976542134424717, -1.5819709300994873, -0.7055072784423828, 0.05747197940945625, -0.6310305953337814, 0.533060099416133, -7.889985659189987, -2.406602382659912, -0.9744200110435486, -0.33578526973724365, -0.9663264751434326, 2.607743978500366, 0.10741059482097626, 0.6203292012214661, 0.15441298484802246, 0.1940588653087616, 0.07318221032619476, 0.07953372597694397, -0.0626034289598465, -5.061579940957017e-05, 0.007503023371100426, 0.030186399817466736, -0.056560218334198, 0.0002957205579150468
280325, 0.927448570728302, -0.593421995639801, 0.07292698323726654, 0.4527606105657148, -0.5782888827714032, -10.975737413316992, -1.5819813013076782, -0.7054979205131531, 0.05745366960763931, -0.6223855109121439, 0.5357637838412757, -7.897585810938751, -2.406545877456665, -0.9745684862136841, -0.33575913310050964, -0.9662896990776062, 2.6048879623413086, 0.10744167119264603, 0.6204324960708618, 0.1544528603553772, 0.19408275187015533, 0.07317723333835602, 0.07953089475631714, -0.06168946251273155, 2.2339010683936067e-05, 0.00749387638643384, 0.030184796079993248, -0.0558057464659214, 0.0003647317935246974
