timeTick, otX0, otY0, otZ0, otRoll0, otPitch0, otYaw0, otX1, otY1, otZ1, otRoll1, otPitch1, otYaw1, rlX1, rlY1, rlZ1, rlYaw1, dist1, PX1, PY1, PZ1, PYaw1, vx0, vy0, vz0, r0, vx1, vy1, vz1, r1
294585, 0.49724215269088745, -0.9769641160964966, 0.07593380659818649, 0.25378593008936834, -0.5778557022112807, -2.7202973535801074, -0.62995845079422, 0.04295959696173668, 0.050096072256565094, 0.4945934131130618, -0.10971671492072232, -4.409944921620535, -0.9208715558052063, -1.2178317308425903, 0.014051872305572033, 1.9617927074432373, 1.486288070678711, 0, 0, 0, 0, 0, 0, 0, 0, 0, 0, 0, 0
294595, 0.4972417652606964, -0.976966381072998, 0.07593271136283875, 0.24477845571144205, -0.574998186760979, -2.710211033115747, -0.6299561858177185, 0.042959101498126984, 0.050118107348680496, 0.4944380124915328, -0.09994150332201457, -4.408823390795882, -0.9224328398704529, -1.2202033996582031, 0.013392963446676731, 1.9617102146148682, 1.5729200839996338, 0.9005313515663147, 0.5152902007102966, 0.1484868824481964, 0.20506976544857025, 0.07891237735748291, 0.10189782828092575, -0.015319669619202614, -3.845745595754124e-05, 0.03121262788772583, -0.05479533597826958, 0.006230682600289583, 0.0007933801971375942
294605, 0.497229665517807, -0.9769769906997681, 0.07593303918838501, 0.24356566096489143, -0.581285149500502, -2.717940191300367, -0.629956066608429, 0.04295136034488678, 0.050107162445783615, 0.5024915608317163, -0.1044336605507965, -4.407685300356347, -0.9225822687149048, -1.219687819480896, 0.013807120732963085, 1.961842656135559, 1.5100880861282349, 0.9008495211601257, 0.5154699683189392, 0.14851923286914825, 0.20509368181228638, 0.07890649884939194, 0.10189799219369888, 0.020185811445116997, -0.00010184654092881829, 0.031205590814352036, -0.05479581281542778, 0.006265562959015369, 0.0009027619380503893
294615, 0.4972401559352875, -0.9769583344459534, 0.07594475150108337, 0.2487077927711048, -0.5761051924727383, -2.7145313768569874, -0.6299538016319275, 0.04294917359948158, 0.050104815512895584, 0.4960173627741242, -0.10838761262513685, -4.408513932021789, -0.9220964312553406, -1.21967351436615, 0.014197587966918945, 1.9617831707000732, 1.5100880861282349, 0.9011790752410889, 0.515629768371582, 0.1485440731048584, 0.20511695742607117, 0.07890328764915466, 0.10189729928970337, 0.019862836226820946, -0.0001827316591516137, 0.03119836375117302, -0.054796382784843445, 0.020455176010727882, 0.0009760611574165523
294625, 0.4972512423992157, -0.9769654273986816, 0.07595127820968628, 0.25027540259255365, -0.5775330836357, -2.719088079017024, -0.6299628615379333, 0.04296056926250458, 0.05011352524161339, 0.501631711341614, -0.10729793825754541, -4.407335647318897, -0.9224832057952881, -1.2201639413833618, 0.014144819229841232, 1.961798071861267, 1.529128074645996, 0.9014728665351868, 0.5158271789550781, 0.1485765278339386, 0.20514070987701416, 0.07890408486127853, 0.10189763456583023, 0.026621831580996513, -0.0002657391596585512, 0.031194640323519707, -0.05479380115866661, 0.020320910960435867, 0.000877866055816412
294635, 0.4972333014011383, -0.9769634008407593, 0.07594534009695053, 0.24841225951442905, -0.5817687991466016, -2.7200663672755385, -0.6299562454223633, 0.042957961559295654, 0.050115324556827545, 0.4931573095913262, -0.10641142532875847, -4.411108835590439, -0.9220579862594604, -1.2185354232788086, 0.014186501502990723, 1.962007761001587, 1.4843840599060059, 0.9018024802207947, 0.5159910917282104, 0.1486121565103531, 0.20516422390937805, 0.07890404760837555, 0.10189595073461533, 0.02625400759279728, -0.00022817908029537648, 0.031188346445560455, -0.05479230731725693, -0.07172375172376633, 0.0006902011227793992
294645, 0.4972367286682129, -0.9769647121429443, 0.07592633366584778, 0.2522536447141296, -0.5811266306018865, -2.715950169716355, -0.6299620270729065, 0.04295587167143822, 0.050115521997213364, 0.4965928214166771, -0.09859467727252991, -4.409303793922395, -0.9212531447410583, -1.2188363075256348, 0.013134101405739784, 1.9618364572525024, 1.5100880861282349, 0.9021303653717041, 0.516157865524292, 0.14864206314086914, 0.2051878422498703, 0.07890869677066803, 0.10189533233642578, 0.078802689909935, -0.0002214954001829028, 0.031188346445560455, -0.05479230731725693, -0.07172375172376633, 0.0004958057543262839
294655, 0.49724626541137695, -0.9769627451896667, 0.07594522833824158, 0.2508201694694406, -0.5796926535533089, -2.7206478441565936, -0.6299554705619812, 0.04295661300420761, 0.0501323938369751, 0.49684442683554514, -0.1044219758981626, -4.410907835849609, -0.9216415286064148, -1.2191106081008911, 0.011786563321948051, 1.9618810415267944, 1.5243679285049438, 0.9023807048797607, 0.5163666605949402, 0.14867015182971954, 0.20521000027656555, 0.07891075313091278, 0.10189403593540192, 0.07762864977121353, -0.00026208945200778544, 0.031182697042822838, -0.054790765047073364, -0.0706755667924881, 0.0003497414290904999
294665, 0.49723783135414124, -0.9769691228866577, 0.0759502574801445, 0.25893706900161895, -0.579274285670806, -2.7226734877677123, -0.6299575567245483, 0.042960040271282196, 0.05011138692498207, 0.4980473581481959, -0.1058108745703521, -4.411620984390339, -0.9218505024909973, -1.2189748287200928, 0.010377521626651287, 1.9619582891464233, 1.51580011844635, 0.9027156233787537, 0.5165074467658997, 0.14868946373462677, 0.20523232221603394, 0.07891444861888885, 0.10189153254032135, 0.14714956283569336, -0.00023627965128980577, 0.031171249225735664, -0.054789818823337555, -0.055062539875507355, 0.00024879444390535355
294675, 0.49733370542526245, -0.9768978357315063, 0.07593981176614761, 0.25146480735259974, -0.5494083344768796, -2.7559401914997523, -0.629956066608429, 0.04295496270060539, 0.050106145441532135, 0.4964981618376944, -0.09541781950321138, -4.408866850344687, -0.9212860465049744, -1.2184419631958008, 0.009982703253626823, 1.9619616270065308, 1.4996159076690674, 0.9030461311340332, 0.5166683793067932, 0.14868572354316711, 0.20525571703910828, 0.07891788333654404, 0.10188908129930496, 0.14524491131305695, -0.000313459342578426, 0.031171249225735664, -0.054789818823337555, -0.055062539875507355, 0.0001953445898834616
294685, 0.4972403347492218, -0.9769589304924011, 0.07595419883728027, 0.2533676855544605, -0.5823996673890974, -2.72506150575952, -0.629958987236023, 0.042954593896865845, 0.0501047819852829, 0.4920318440915438, -0.11170977045023278, -4.411467797456512, -0.9216117262840271, -1.2188397645950317, 0.008952110074460506, 1.961977481842041, 1.525320053100586, 0.90336012840271, 0.5168525576591492, 0.14866462349891663, 0.20527972280979156, 0.07891921699047089, 0.10188739746809006, 0.1363918036222458, -0.00044920045183971524, 0.031163031235337257, -0.054787978529930115, 0.019714636728167534, 0.0003298536466900259
294695, 0.49723905324935913, -0.9769692420959473, 0.0759347677230835, 0.2547758234423507, -0.5805583557836371, -2.7189163744867004, -0.6299703121185303, 0.04296072572469711, 0.05009688809514046, 0.500924730111775, -0.10391446136918603, -4.4090126500288065, -0.9218970537185669, -1.219179630279541, 0.0071425666101276875, 1.961997389793396, 1.5243679285049438, 0.9036865830421448, 0.5170239210128784, 0.14866238832473755, 0.20530357956886292, 0.07892226427793503, 0.10188635438680649, 0.13470779359340668, -0.00045797612983733416, 0.031150855123996735, -0.05478581786155701, -0.07256452739238739, 0.0005072590429335833
294705, 0.49725422263145447, -0.976971447467804, 0.07595383375883102, 0.25609261463306315, -0.5762056039485515, -2.7218031770135735, -0.6299619078636169, 0.042960505932569504, 0.05009886622428894, 0.49880937995135505, -0.10382649554173895, -4.4096876851664195, -0.9220610857009888, -1.2193539142608643, 0.00645128870382905, 1.9620224237442017, 1.5205600261688232, 0.9040118455886841, 0.5171968340873718, 0.14863088726997375, 0.20532746613025665, 0.07892833650112152, 0.10188552737236023, 0.051831457763910294, -0.00045333654270507395, 0.031146882101893425, -0.05478394404053688, -0.07169144600629807, 0.0005417927168309689
294715, 0.4972408413887024, -0.9769740104675293, 0.07596283406019211, 0.2462783119137398, -0.5763956331560678, -2.714470972899747, -0.6299505829811096, 0.04296141862869263, 0.050113797187805176, 0.4965715499662823, -0.10768489835976425, -4.407901210962937, -0.9220610857009888, -1.2193539142608643, 0.00645128870382905, 1.9620224237442017, 1.5205600261688232, 0.9043353199958801, 0.5173721313476562, 0.1485907882452011, 0.20535141229629517, 0.07892833650112152, 0.10188552737236023, 0.051831457763910294, -0.00045333654270507395, 0.031146882101893425, -0.05478394404053688, -0.07169144600629807, 0.0005417927168309689
294725, 0.49723437428474426, -0.9769685864448547, 0.07594422996044159, 0.2499147989870443, -0.57575868716998, -2.7198697367027167, -0.6299629211425781, 0.04295946657657623, 0.050115592777729034, 0.5007774953335701, -0.10151399655188698, -4.404742766536101, -0.921492338180542, -1.2184392213821411, 0.005262285470962524, 1.9620997905731201, 1.4910480976104736, 0.9043353199958801, 0.5173721313476562, 0.1485907882452011, 0.20535141229629517, 0.07893939316272736, 0.10188936442136765, 0.1248241737484932, -0.00024400897382292897, 0.03114047646522522, -0.05478093773126602, -0.12222770601511002, 0.0004817024455405772
294735, 0.49733200669288635, -0.9769048690795898, 0.07593140751123428, 0.26296297239681327, -0.5507216271183495, -2.765797604035589, -0.6299634575843811, 0.042964059859514236, 0.05011385679244995, 0.49531733223821717, -0.0992402196346518, -4.4095029910521735, -0.920939564704895, -1.2179945707321167, 0.005395819433033466, 1.9620893001556396, 1.5053279399871826, 0.9051046967506409, 0.5178554654121399, 0.14856062829494476, 0.20544734597206116, 0.07894625514745712, 0.10189134627580643, 0.123138926923275, -0.00020918159862048924, 0.031137079000473022, -0.05477973818778992, -0.007638528943061829, 0.0004901057691313326
294745, 0.497250497341156, -0.9769594073295593, 0.07596667855978012, 0.2529889915991038, -0.5770864575281109, -2.7262842109254826, -0.6299598813056946, 0.042961347848176956, 0.05011347681283951, 0.4960656183487772, -0.10560526108605472, -4.411242352857433, -0.9220032095909119, -1.2197256088256836, 0.0033963159658014774, 1.962024211883545, 1.551975965499878, 0.9054043889045715, 0.5180315375328064, 0.1485203206539154, 0.20547135174274445, 0.07895432412624359, 0.10189501196146011, 0.07202120125293732, -0.00022923891083337367, 0.031137079000473022, -0.05477973818778992, -0.007638528943061829, 0.0005472482880577445
294755, 0.4973375201225281, -0.9768994450569153, 0.07594054937362671, 0.25840953224943364, -0.552769701947966, -2.7604701267036353, -0.6299516558647156, 0.04295085743069649, 0.05010772496461868, 0.48886453206039193, -0.10750126329202203, -4.406951239990267, -0.9221777319908142, -1.2192009687423706, 0.0036362113896757364, 1.9621613025665283, 1.5119919776916504, 0.9057238698005676, 0.5181926488876343, 0.14850959181785583, 0.2054951786994934, 0.07896337658166885, 0.10189878195524216, 0.07114430516958237, -0.0003327472659293562, 0.031129973009228706, -0.05477684363722801, -0.017921525985002518, 0.000691690540406853
294765, 0.497273325920105, -0.9769222140312195, 0.0759570449590683, 0.2610738697209881, -0.5671026660829455, -2.7106001757168428, -0.6299588084220886, 0.04296325519680977, 0.05010282248258591, 0.4955641381366552, -0.10497893475869091, -4.402320766264197, -0.9222925305366516, -1.2195372581481934, 0.003949190955609083, 1.9621542692184448, 1.5234160423278809, 0.9060572981834412, 0.5183314085006714, 0.14846624433994293, 0.20551814138889313, 0.07897040992975235, 0.1019032746553421, -0.021493835374712944, -0.000564498477615416, 0.031129973009228706, -0.05477684363722801, -0.017921525985002518, 0.0007041874923743308
294775, 0.49724143743515015, -0.9769606590270996, 0.0759471133351326, 0.24944768643619694, -0.5776565585778428, -2.7202354045652233, -0.6299644708633423, 0.04296121001243591, 0.05009988695383072, 0.5015647442966042, -0.0994053173421321, -4.411561052287874, -0.9231582283973694, -1.220540165901184, 0.0037356431130319834, 1.9621745347976685, 1.5424559116363525, 0.9063525795936584, 0.5185181498527527, 0.14846272766590118, 0.2055419236421585, 0.07897745817899704, 0.1019061878323555, -0.021208718419075012, -0.0005731998244300485, 0.031118405982851982, -0.05477176979184151, 0.0036782692186534405, 0.0006543658091686666
294785, 0.49726608395576477, -0.9769128561019897, 0.07595540583133698, 0.2586195078149167, -0.5665860534915339, -2.715691475730516, -0.6299636960029602, 0.042960263788700104, 0.05010426416993141, 0.49125515340964554, -0.1009095018790731, -4.409711385259098, -0.9223858118057251, -1.2201640605926514, 0.004732518922537565, 1.9621206521987915, 1.5034241676330566, 0.906664252281189, 0.518696665763855, 0.14847536385059357, 0.2055659294128418, 0.07898321747779846, 0.10190751403570175, 0.007312760688364506, -0.0004243061412125826, 0.031112438067793846, -0.05476797744631767, 0.0035211944486945868, 0.0006097228033468127
294795, 0.497236043214798, -0.9769662022590637, 0.07594229280948639, 0.24691799361530553, -0.579231839634474, -2.711821385862016, -0.6299581527709961, 0.042973510921001434, 0.05010242760181427, 0.4949072827094631, -0.10490434096121248, -4.405672857475192, -0.9224515557289124, -1.219409465789795, 0.005314497277140617, 1.962275743484497, 1.5062801837921143, 0.9069656133651733, 0.5188843011856079, 0.14848661422729492, 0.20558981597423553, 0.07898926734924316, 0.10190798342227936, 0.007276121526956558, -0.00022987161355558783, 0.031102951616048813, -0.054764408618211746, 0.006911419797688723, 0.0006313275662250817
294805, 0.4973188638687134, -0.9769026637077332, 0.07595888525247574, 0.2619251466486535, -0.5537588669794786, -2.7794556943214315, -0.6299600601196289, 0.042967867106199265, 0.05012928694486618, 0.5008666439979385, -0.10214398447209305, -4.406447275123673, -0.9207435846328735, -1.218907356262207, 0.005204011220484972, 1.9620715379714966, 1.488192081451416, 0.9072969555854797, 0.5190386176109314, 0.14851446449756622, 0.20561306178569794, 0.07899466902017593, 0.10190850496292114, 0.13436371088027954, -2.3163411242421716e-05, 0.031093399971723557, -0.05476050823926926, 0.006807307712733746, 0.0006621719803661108
294815, 0.49724680185317993, -0.9769692420959473, 0.07595743238925934, 0.24593273103317306, -0.5695409320298097, -2.708227374154531, -0.6299629211425781, 0.042962756007909775, 0.050112247467041016, 0.49572968737634204, -0.10511888246074363, -4.409410881241173, -0.9218127727508545, -1.2173690795898438, 0.004691327456384897, 1.9625271558761597, 1.5034241676330566, 0.9075767397880554, 0.5192412734031677, 0.14853836596012115, 0.20563654601573944, 0.07899734377861023, 0.10190912336111069, 0.13268150389194489, 0.00011608242493821308, 0.03108338452875614, -0.05475500971078873, 0.017408395186066628, 0.0005915335495956242
294825, 0.49723678827285767, -0.9769676923751831, 0.07594636082649231, 0.2472863669382878, -0.5760262406678294, -2.707636322145693, -0.6299650073051453, 0.04296504333615303, 0.050115279853343964, 0.4963255772878312, -0.10447802858317345, -4.40681497412755, -0.9209737777709961, -1.2180887460708618, 0.004096165765076876, 1.9622747898101807, 1.51580011844635, 0.9078927636146545, 0.519318163394928, 0.14856483042240143, 0.2056538313627243, 0.07900019735097885, 0.10191037505865097, 0.10629179328680038, 0.0003938887675758451, 0.03108338452875614, -0.05475500971078873, 0.017408395186066628, 0.000559119856916368
294835, 0.4972376525402069, -0.9769654870033264, 0.07596208900213242, 0.24685678161503496, -0.572649991220544, -2.7163310334866413, -0.6299571990966797, 0.042957983911037445, 0.05010652542114258, 0.5002715941007237, -0.10623818340764046, -4.413944557685064, -0.9211180210113525, -1.2178888320922852, 0.003576361807063222, 1.9623453617095947, 1.5129441022872925, 0.9079969525337219, 0.5195332169532776, 0.14859247207641602, 0.2056685835123062, 0.07900464534759521, 0.10191187262535095, 0.1049986481666565, 0.00044345369678922, 0.03106122463941574, -0.05474463105201721, 0.010114422999322414, 0.000571492942981422
294845, 0.49724090099334717, -0.97696453332901, 0.07595261931419373, 0.25041924357439616, -0.5715398012640946, -2.7176181502648076, -0.6299626231193542, 0.04295962676405907, 0.05012714862823486, 0.4921628070600197, -0.10730084841625853, -4.409147614019574, -0.921210765838623, -1.2180877923965454, 0.003338280599564314, 1.9623422622680664, 1.5186561346054077, 0.9083166718482971, 0.5197069644927979, 0.14861541986465454, 0.2056921422481537, 0.07900991290807724, 0.10191355645656586, 0.05781174451112747, 0.00043846588232554495, 0.031052423641085625, -0.05474061891436577, 0.009981350973248482, 0.0005491768242791295
294855, 0.49723148345947266, -0.976967453956604, 0.07594063133001328, 0.25338224778305374, -0.5744148138979313, -2.7234820703182847, -0.6299558877944946, 0.042950160801410675, 0.0501246340572834, 0.49791602270389895, -0.09841896243275983, -4.407792254031265, -0.9211110472679138, -1.2179557085037231, 0.0033086517360061407, 1.9623595476150513, 1.5110399723052979, 0.9086182117462158, 0.5199033617973328, 0.14864113926887512, 0.20571614801883698, 0.07901643216609955, 0.10191669315099716, 0.05703013017773628, 0.00034865792258642614, 0.031052423641085625, -0.05474061891436577, 0.009981350973248482, 0.0005194050609134138
294865, 0.49725377559661865, -0.9769563674926758, 0.07595755159854889, 0.2473586419606243, -0.5695027261200494, -2.7090814782921138, -0.6299557685852051, 0.04296471178531647, 0.05011014640331268, 0.4974442765916332, -0.1007472277152317, -4.416823341177043, -0.9214445352554321, -1.218380093574524, 0.0036216843873262405, 1.9623632431030273, 1.525320053100586, 0.9089274406433105, 0.5200934410095215, 0.14866723120212555, 0.20574012398719788, 0.07902151346206665, 0.10191937536001205, 0.010311436839401722, 0.0003161827044095844, 0.031033284962177277, -0.05473252385854721, 0.037392113357782364, 0.0004221129638608545
294875, 0.4972448945045471, -0.9769607782363892, 0.07595013082027435, 0.24934828570798073, -0.5774397397781854, -2.7192542878821695, -0.6299569606781006, 0.0429571270942688, 0.05009616166353226, 0.5045363656311472, -0.10858747181794115, -4.411909357133473, -0.9213670492172241, -1.2182739973068237, 0.004271634854376316, 1.9623805284500122, 1.5119919776916504, 0.9092377424240112, 0.5202827453613281, 0.14870132505893707, 0.20576409995555878, 0.07902394980192184, 0.10192364454269409, 0.01018251571804285, 0.0003095123975072056, 0.031021123751997948, -0.05472543463110924, 0.05790998414158821, 0.00039964550524018705
294885, 0.497234970331192, -0.9769718050956726, 0.07593299448490143, 0.25162550054931654, -0.5743122586680443, -2.720193050497057, -0.6299508213996887, 0.04296062886714935, 0.05011986196041107, 0.49999511474156744, -0.09658682342652014, -4.4061749023052394, -0.9212148785591125, -1.2180616855621338, 0.004671618342399597, 1.962403655052185, 1.5091359615325928, 0.9095478653907776, 0.5204725861549377, 0.1487390547990799, 0.20578807592391968, 0.07902408391237259, 0.10192836076021194, 0.027750875800848007, 0.00022484181681647897, 0.031021123751997948, -0.05472543463110924, 0.05790998414158821, 0.00042946217581629753
294895, 0.4972342848777771, -0.976976215839386, 0.07595570385456085, 0.2508716778006678, -0.5757330916645174, -2.715925797976573, -0.6299574375152588, 0.04296053200960159, 0.05011271685361862, 0.5037784911329117, -0.10740978618099462, -4.413934026902696, -0.9207085371017456, -1.2173874378204346, 0.004991952795535326, 1.962440013885498, 1.4967601299285889, 0.9098597764968872, 0.5206611752510071, 0.14877849817276, 0.20581205189228058, 0.07902538776397705, 0.10193268954753876, 0.0274181067943573, 0.0003088535740971565, 0.030999796465039253, -0.05470818281173706, 0.05607122555375099, 0.0005531503702513874
294905, 0.4972395598888397, -0.9769631624221802, 0.07594700157642365, 0.2494056524984288, -0.5785548553036222, -2.7157681614399993, -0.6299578547477722, 0.042968153953552246, 0.05010572075843811, 0.5010922277112605, -0.10801536138322376, -4.413756766226366, -0.9208959937095642, -1.2176214456558228, 0.005720602814108133, 1.9624509811401367, 1.5196080207824707, 0.9101702570915222, 0.5208511352539062, 0.1488184630870819, 0.20583602786064148, 0.07902862876653671, 0.10193827003240585, -0.022329535335302353, 0.00025992110022343695, 0.030993245542049408, -0.0547010712325573, 0.055483102798461914, 0.0004928857088088989
294915, 0.4972423315048218, -0.9769656658172607, 0.07593984156847, 0.2457001380747686, -0.5720439915465647, -2.710897392591245, -0.6299628019332886, 0.04295827075839043, 0.05011092126369476, 0.49601720376718467, -0.10300452381952141, -4.4073895076476015, -0.9198915362358093, -1.216331958770752, 0.006062174215912819, 1.962501049041748, 1.4796240329742432, 0.9104818105697632, 0.5210404992103577, 0.14885756373405457, 0.20586000382900238, 0.07903053611516953, 0.10194290429353714, -0.02197919599711895, 0.00026577338576316833, 0.030987178906798363, -0.054693326354026794, 0.08676762133836746, 0.00038318795850500464
294925, 0.4972493648529053, -0.9769676327705383, 0.07595686614513397, 0.2540749803082302, -0.5792826206733253, -2.7183465952496677, -0.6299519538879395, 0.042967673391103745, 0.05011698603630066, 0.4967811063851292, -0.10466861439772401, -4.406499434154888, -0.9201539754867554, -1.216647982597351, 0.007718805689364672, 1.9625111818313599, 1.5205600261688232, 0.9107927083969116, 0.5212306976318359, 0.1488925665616989, 0.20588397979736328, 0.07903394848108292, 0.10194763541221619, -0.0922752171754837, 0.0003185474779456854, 0.030983667820692062, -0.05468617007136345, 0.08586141467094421, 0.0004914335440844297
294935, 0.49725544452667236, -0.9769638180732727, 0.07596039772033691, 0.24420874056427136, -0.5740804805577966, -2.7172143058955642, -0.6299559473991394, 0.0429665744304657, 0.05011431500315666, 0.5001684304976626, -0.10277788257334919, -4.414888333144666, -0.9202573895454407, -1.2167741060256958, 0.009104263037443161, 1.9625264406204224, 1.51580011844635, 0.9111052751541138, 0.5214195251464844, 0.1489209234714508, 0.2059079259634018, 0.0790354385972023, 0.1019553691148758, -0.09109164774417877, 0.0002604118490125984, 0.030983667820692062, -0.05468617007136345, 0.08586141467094421, 0.0005743414512835443
294945, 0.49722591042518616, -0.9769602417945862, 0.07593128085136414, 0.2513489503375395, -0.5772989170395135, -2.7179547127221193, -0.6299574375152588, 0.04295315966010094, 0.05011315643787384, 0.4958888943693318, -0.10541673413638364, -4.402782314528171, -0.9199143052101135, -1.2163147926330566, 0.008820210583508015, 1.9625612497329712, 1.500568151473999, 0.9114170074462891, 0.5216094255447388, 0.1489330232143402, 0.2059319019317627, 0.07903534173965454, 0.10196062177419662, 0.04080550745129585, 0.000303294655168429, 0.0309744942933321, -0.05467589944601059, 0.10483802109956741, 0.0007435143925249577
294955, 0.49724844098091125, -0.9769649505615234, 0.07595352083444595, 0.2485900301107602, -0.5734839259523596, -2.7102021211608545, -0.6299546957015991, 0.04296636953949928, 0.05010373145341873, 0.4920803312000169, -0.09605794086110109, -4.410977534507706, -0.9193564057350159, -1.2155390977859497, 0.00845323782414198, 1.9626103639602661, 1.4920001029968262, 0.9117282032966614, 0.5217999815940857, 0.14894671738147736, 0.2059558779001236, 0.07903701812028885, 0.10196446627378464, 0.0404474176466465, 0.00033063170849345624, 0.0309744942933321, -0.05467589944601059, 0.10483802109956741, 0.0007683736039325595
294965, 0.4972555935382843, -0.9769532680511475, 0.07595979422330856, 0.2464752934992058, -0.573011440377627, -2.7062485503431923, -0.629960834980011, 0.042959004640579224, 0.05012419819831848, 0.49559366915559777, -0.10199242129186814, -4.4098422514790485, -0.9203372597694397, -1.2167973518371582, 0.009576368145644665, 1.9625945091247559, 1.5443601608276367, 0.9120396375656128, 0.5219903588294983, 0.14896836876869202, 0.2059798538684845, 0.07903425395488739, 0.1019693911075592, 0.06828507035970688, 0.0002641628962010145, 0.030967919155955315, -0.05466480180621147, 0.1339695155620575, 0.0007320588920265436
294975, 0.4972449839115143, -0.9769594669342041, 0.07594003528356552, 0.24724515719631127, -0.5756823437394871, -2.713557956050243, -0.6299533247947693, 0.042962945997714996, 0.05011000111699104, 0.4999648089290416, -0.09905369475274028, -4.412817249752872, -0.9204440116882324, -1.216965675354004, 0.009852087125182152, 1.9626048803329468, 1.516752004623413, 0.9123508930206299, 0.5221808552742004, 0.14899665117263794, 0.2060038298368454, 0.07902923226356506, 0.10197392106056213, 0.06747662276029587, 0.00021275410836096853, 0.03096499852836132, -0.054660141468048096, 0.12541773915290833, 0.0006419120472855866
294985, 0.4973282814025879, -0.976883590221405, 0.07591333240270615, 0.25313518372294586, -0.5500457017021461, -2.773584724115142, -0.6299684643745422, 0.04296732693910599, 0.05010040104389191, 0.4964168248899687, -0.1017215594303309, -4.405848144597467, -0.9207838177680969, -1.2174021005630493, 0.010009907186031342, 1.962612509727478, 1.5243679285049438, 0.9126611948013306, 0.5223724842071533, 0.14901654422283173, 0.2060278356075287, 0.07902221381664276, 0.10197725892066956, 0.10201454162597656, 0.0001985819253604859, 0.030962450429797173, -0.0546547956764698, 0.124089814722538, 0.0006858431734144688
294995, 0.4972534775733948, -0.9769701361656189, 0.07596961408853531, 0.25218934102166546, -0.5774609978134606, -2.717584861165412, -0.6299571990966797, 0.04296489059925079, 0.050112366676330566, 0.4930614283703755, -0.10579042309018405, -4.4135123869019335, -0.9206926822662354, -1.2172760963439941, 0.00978755485266447, 1.9626374244689941, 1.5100880861282349, 0.9129742383956909, 0.52256178855896, 0.14904089272022247, 0.2060518115758896, 0.07901554554700851, 0.1019807830452919, 0.10079672932624817, 0.00021302851382642984, 0.030962450429797173, -0.0546547956764698, 0.124089814722538, 0.0007131680031307042
295005, 0.4973307251930237, -0.9768914580345154, 0.0759507417678833, 0.26080118932959695, -0.5564305168891508, -2.772698251580943, -0.6299552917480469, 0.042961835861206055, 0.05012742802500725, 0.4929300590476456, -0.09482621150056048, -4.405866478554974, -0.9211304783821106, -1.2178436517715454, 0.008397013880312443, 1.9626412391662598, 1.5281760692596436, 0.9132869839668274, 0.5227514505386353, 0.14906637370586395, 0.2060757875442505, 0.07900822907686234, 0.10198407620191574, 0.1702399104833603, 0.00020578929979819804, 0.03095310740172863, -0.054642584174871445, 0.030395949259400368, 0.0007508817943744361
295015, 0.49724581837654114, -0.9769618511199951, 0.07592588663101196, 0.25743351538330805, -0.5767878820524857, -2.7250155158182228, -0.6299539804458618, 0.04295894131064415, 0.050095491111278534, 0.49743359983564855, -0.09721621188214158, -4.406304202655687, -0.9209209084510803, -1.2174859046936035, 0.007104565389454365, 1.9626787900924683, 1.5053279399871826, 0.9136011004447937, 0.5229396224021912, 0.14910537004470825, 0.2060997635126114, 0.07900170981884003, 0.10198654979467392, 0.168181911110878, 0.0002897336962632835, 0.030946925282478333, -0.0546363890171051, 0.022839104756712914, 0.0004862110363319516
295025, 0.497242271900177, -0.9769572615623474, 0.07594358921051025, 0.2509793722570745, -0.5777087194509534, -2.7095316413364183, -0.6299532055854797, 0.04296289384365082, 0.050109125673770905, 0.4990717016104614, -0.10186466974315067, -4.413173918366479, -0.9203110337257385, -1.216769814491272, 0.007108087185770273, 1.962700605392456, 1.4939041137695312, 0.9139145612716675, 0.5231282711029053, 0.14914432168006897, 0.2061237096786499, 0.0789993554353714, 0.10198767483234406, 0.04602174833416939, 0.00043702422408387065, 0.030942503362894058, -0.054630957543849945, 0.022487236186861992, 0.00028203160036355257
295035, 0.49725109338760376, -0.9769595861434937, 0.07594981044530869, 0.24513720834865776, -0.5767857748185179, -2.711953211792893, -0.6299664378166199, 0.04295666515827179, 0.05011829361319542, 0.49470270495698976, -0.10637841770292766, -4.405394409612542, -0.9203509092330933, -1.216705322265625, 0.006970209535211325, 1.96272873878479, 1.5119919776916504, 0.9142226576805115, 0.5233225226402283, 0.1491832733154297, 0.2061477154493332, 0.07899776846170425, 0.10198882967233658, 0.04544719308614731, 0.0005191278760321438, 0.030942503362894058, -0.054630957543849945, 0.022487236186861992, 0.0002528371405787766
295045, 0.4972333312034607, -0.976959228515625, 0.07593585550785065, 0.251167546276763, -0.5837663233152739, -2.717821599003714, -0.6299639344215393, 0.04295524209737778, 0.050101008266210556, 0.4966556623459237, -0.10121019484807903, -4.414247612425746, -0.9205580949783325, -1.2169731855392456, 0.006092274095863104, 1.962733507156372, 1.5196080207824707, 0.9145351648330688, 0.5235121250152588, 0.1492224484682083, 0.20617163181304932, 0.07899657636880875, 0.10198888927698135, 0.11211013048887253, 0.00043846326298080385, 0.030937185510993004, -0.05461890250444412, 0.014915219508111477, 0.00032371486304327846
295055, 0.49725398421287537, -0.9769660234451294, 0.07595605403184891, 0.2516688415480858, -0.5728925673458605, -2.7151287437106637, -0.6299629807472229, 0.04296025633811951, 0.0500979982316494, 0.5053962294291173, -0.10682906803205583, -4.41050754671508, -0.9203759431838989, -1.216713786125183, 0.005555242300033569, 1.9627560377120972, 1.5062801837921143, 0.9148441553115845, 0.5237056612968445, 0.14925846457481384, 0.20619560778141022, 0.07899531722068787, 0.10198960453271866, 0.11083150655031204, 0.00039041670970618725, 0.030937185510993004, -0.05461890250444412, 0.014915219508111477, 0.00026928281295113266
295065, 0.4972439110279083, -0.9769606590270996, 0.07594133913516998, 0.2520673357465004, -0.5747849639942615, -2.7172932162317758, -0.6299551129341125, 0.0429595485329628, 0.05010882019996643, 0.49059078680293705, -0.10943006386878551, -4.4043346917491295, -0.919855535030365, -1.2159849405288696, 0.005034913308918476, 1.9627935886383057, 1.4939041137695312, 0.9151549935340881, 0.5238973498344421, 0.14928968250751495, 0.20621958374977112, 0.0789923220872879, 0.10198936611413956, 0.0917665958404541, 0.000388743937946856, 0.030930841341614723, -0.05460558086633682, -0.05167233198881149, 8.735255687497556e-05
295075, 0.4972318708896637, -0.9769557118415833, 0.07593494653701782, 0.2573921919582534, -0.5789161265042253, -2.7172622092323184, -0.6299512386322021, 0.04296191409230232, 0.05013281852006912, 0.49994515350570407, -0.10824498727942, -4.403539313872544, -0.91975337266922, -1.2158527374267578, 0.0042286100797355175, 1.9628064632415771, 1.5081839561462402, 0.9154662489891052, 0.5240886807441711, 0.14931342005729675, 0.20624355971813202, 0.07898852974176407, 0.10199011117219925, 0.09060925990343094, 0.00041033324669115245, 0.030926473438739777, -0.054597292095422745, -0.04048658907413483, 1.291976968786912e-05
295085, 0.49724242091178894, -0.9769644141197205, 0.07595603913068771, 0.2542794282033313, -0.5787992844879852, -2.715680377910318, -0.629960298538208, 0.04296090826392174, 0.05011659115552902, 0.49499645945076676, -0.09461802496363703, -4.404860964811392, -0.9202415943145752, -1.2164864540100098, 0.00316320126876235, 1.9627997875213623, 1.5281760692596436, 0.9157758951187134, 0.5242815017700195, 0.14933593571186066, 0.20626753568649292, 0.07898878306150436, 0.10199182480573654, 0.05771661922335625, 0.00027200093609280884, 0.030924472957849503, -0.0545874759554863, -0.03999378904700279, -2.5266768716392107e-05
295095, 0.4972505569458008, -0.976961612701416, 0.07594498991966248, 0.24879167335317548, -0.5793576683055051, -2.7100705204145816, -0.6299600005149841, 0.042956482619047165, 0.05012640357017517, 0.502149977773845, -0.112053783984436, -4.4118576098451125, -0.9195496439933777, -1.2155029773712158, 0.004094758071005344, 1.9628498554229736, 1.4872398376464844, 0.9160890579223633, 0.5244711637496948, 0.1493564397096634, 0.20629151165485382, 0.07899035513401031, 0.10199503600597382, 0.056991953402757645, 0.00016288235201500356, 0.030924849212169647, -0.05457739904522896, 0.027561573311686516, -7.78592293499969e-05
295105, 0.49725356698036194, -0.976961612701416, 0.07594604045152664, 0.24850728138428507, -0.5785920131242506, -2.71146553929731, -0.629960834980011, 0.04294644296169281, 0.05011468380689621, 0.49353094271201536, -0.1059449549384226, -4.408851704666585, -0.9191157221794128, -1.2150269746780396, 0.0036831311881542206, 1.9628639221191406, 1.4977121353149414, 0.9164040088653564, 0.5246590375900269, 0.1493760347366333, 0.20631548762321472, 0.07899188995361328, 0.10200022161006927, 0.14460021257400513, 9.919114381773397e-05, 0.030927002429962158, -0.05456680431962013, 0.027106303721666336, -3.1872947147348896e-05
295115, 0.4972512423992157, -0.9769688844680786, 0.07595636695623398, 0.2452332067717096, -0.5744314975812017, -2.7103700085361684, -0.6299560070037842, 0.04296429455280304, 0.05012068152427673, 0.49046627197271736, -0.10242443706604831, -4.411305872525095, -0.9194258451461792, -1.2154006958007812, 0.0014011804014444351, 1.9628714323043823, 1.5205600261688232, 0.9167167544364929, 0.5248491764068604, 0.14939989149570465, 0.206339493393898, 0.07899243384599686, 0.1020074337720871, 0.1428617238998413, 2.528095865272917e-05, 0.030929770320653915, -0.05455608293414116, -0.10055229812860489, -3.8345686334650964e-05
295125, 0.4972483813762665, -0.9769619703292847, 0.07595018297433853, 0.2512314927631653, -0.5747017985123932, -2.7236091768335458, -0.6299678683280945, 0.04296017065644264, 0.05010274052619934, 0.5038095282998553, -0.10133256298513516, -4.409892176816045, -0.9194220900535583, -1.215294599533081, -0.00010566185665084049, 1.9629021883010864, 1.5091359615325928, 0.9170368313789368, 0.5250314474105835, 0.1494053304195404, 0.20636340975761414, 0.07899266481399536, 0.10201586037874222, 0.14122508466243744, -5.939881521044299e-05, 0.030929770320653915, -0.05455608293414116, -0.10055229812860489, -3.665178155642934e-05
295135, 0.4972405731678009, -0.9769620299339294, 0.0759371966123581, 0.25086160546388087, -0.5820721513574938, -2.7124632753727247, -0.62995445728302, 0.042956240475177765, 0.05011364072561264, 0.4979787214326388, -0.10156637321733797, -4.407926542505975, -0.919845461845398, -1.2158453464508057, -0.0028830491937696934, 1.962902545928955, 1.525320053100586, 0.9173574447631836, 0.5252134799957275, 0.1493755578994751, 0.20638732612133026, 0.07899080961942673, 0.10202591121196747, 0.13965433835983276, -1.5079955119290389e-05, 0.03093050606548786, -0.0545353963971138, -0.13353390991687775, 7.374416600214317e-05
295145, 0.4972471296787262, -0.9769670367240906, 0.07594462484121323, 0.24620804328392962, -0.5710017491470865, -2.720296838778627, -0.6299591064453125, 0.042950473725795746, 0.05010778084397316, 0.49812125669434043, -0.11499209653698017, -4.411841602480548, -0.9198981523513794, -1.2158886194229126, -0.004883717279881239, 1.9629169702529907, 1.5129441022872925, 0.9176734089851379, 0.5254005193710327, 0.14931562542915344, 0.20641133189201355, 0.0789882019162178, 0.10203602910041809, 0.18386702239513397, 0.00021251097496133298, 0.030927523970603943, -0.054525408893823624, -0.1318640112876892, 0.0002090592315653339
295155, 0.497245192527771, -0.9769676327705383, 0.07595545053482056, 0.24884800476143373, -0.5776548943501609, -2.718599638750801, -0.6299535632133484, 0.04296109825372696, 0.05012410134077072, 0.5017229267911799, -0.10963636106592389, -4.4129595761484754, -0.9195473790168762, -1.2153737545013428, -0.005267519969493151, 1.9629491567611694, 1.4986640214920044, 0.917987585067749, 0.5255891680717468, 0.14917798340320587, 0.20643530786037445, 0.078984834253788, 0.10204566270112991, 0.1814984381198883, 0.00027290001162327826, 0.030927523970603943, -0.054525408893823624, -0.1318640112876892, 0.0003444816975388676
295165, 0.49724510312080383, -0.9769681692123413, 0.07593544572591782, 0.25247289075088447, -0.5772059395452516, -2.7244701556995468, -0.6299561858177185, 0.04295052960515022, 0.050102587789297104, 0.4970128994380785, -0.09985530861425218, -4.4079973454247385, -0.9193364977836609, -1.2151367664337158, -0.005645532160997391, 1.9629645347595215, 1.5043760538101196, 0.9183012247085571, 0.525778591632843, 0.149001806974411, 0.20645928382873535, 0.07897835969924927, 0.10205458849668503, 0.16151723265647888, 0.00022832943068351597, 0.03092493861913681, -0.05450545996427536, -0.055390022695064545, 0.0005272825947031379
295175, 0.49724501371383667, -0.9769632816314697, 0.07594641298055649, 0.2465964451124131, -0.5841875827258036, -2.713101796936673, -0.62995445728302, 0.04295781999826431, 0.05011642724275589, 0.49427026848716726, -0.10330430114106548, -4.408091734608377, -0.9200776815414429, -1.2161427736282349, -0.00927092507481575, 1.9629548788070679, 1.5367438793182373, 0.9186132550239563, 0.5259698033332825, 0.14888444542884827, 0.20648328959941864, 0.07897118479013443, 0.10206391662359238, 0.15952754020690918, 0.0001298708375543356, 0.030915087088942528, -0.05449703335762024, -0.09708846360445023, 0.0009126343065872788
295185, 0.49723681807518005, -0.9769585132598877, 0.07593943178653717, 0.2442522895822699, -0.5778371109440457, -2.7194337689918835, -0.6299583911895752, 0.04296824336051941, 0.05010596662759781, 0.5005143354483974, -0.10460505739126802, -4.411696420762732, -0.920003354549408, -1.2158626317977905, -0.009346989914774895, 1.9630082845687866, 1.5062801837921143, 0.9189300537109375, 0.5261564254760742, 0.14877067506313324, 0.20650726556777954, 0.07896124571561813, 0.10206953436136246, 0.12217924743890762, 7.518858910771087e-05, 0.030915087088942528, -0.05449703335762024, -0.09708846360445023, 0.0010907447431236506
295195, 0.49725115299224854, -0.9769737720489502, 0.0759519711136818, 0.25420098341103514, -0.5773127316072646, -2.7144077176042707, -0.6299611330032349, 0.04295817390084267, 0.05010338872671127, 0.4958760599930669, -0.10026943029978952, -4.404124184281594, -0.9205576777458191, -1.2165495157241821, -0.011581448838114738, 1.9630193710327148, 1.530079960823059, 0.9192506670951843, 0.5263389945030212, 0.1485690325498581, 0.20653118193149567, 0.07895133644342422, 0.102076955139637, 0.12054029107093811, 9.627079998608679e-05, 0.030904002487659454, -0.05448628216981888, -0.05935673788189888, 0.0011229364899918437
295205, 0.49725931882858276, -0.9769667983055115, 0.07594636082649231, 0.2453504970046805, -0.5732776379149982, -2.7221833644441205, -0.6299518346786499, 0.042958661913871765, 0.050118908286094666, 0.4973522465779429, -0.1091172315025517, -4.401934691777574, -0.9201148748397827, -1.2161728143692017, -0.010922570712864399, 1.9630241394042969, 1.500568151473999, 0.9195615649223328, 0.5265315175056458, 0.1484227329492569, 0.20655518770217896, 0.07894182205200195, 0.10208170861005783, 0.1614648550748825, -0.00012606431846506894, 0.030902566388249397, -0.05448121950030327, -0.0585680715739727, 0.0010097725316882133
295215, 0.4972488284111023, -0.9769507050514221, 0.07595329731702805, 0.25308228640223174, -0.5809570589667885, -2.731844369113874, -0.6299595236778259, 0.04297075420618057, 0.050107456743717194, 0.4979041144039373, -0.10222358695747857, -4.41045790814599, -0.9198303818702698, -1.2154844999313354, -0.010157271288335323, 1.9631086587905884, 1.4967601299285889, 0.9198756217956543, 0.526721179485321, 0.14821171760559082, 0.20657919347286224, 0.07893071323633194, 0.10208536684513092, 0.15956076979637146, -0.000358937366399914, 0.030898064374923706, -0.05447673052549362, -0.029529359191656113, 0.0007636456866748631
295225, 0.49725839495658875, -0.9769602417945862, 0.07594091445207596, 0.25057927198664964, -0.5768805045819363, -2.7155739479346015, -0.6299582123756409, 0.04296023026108742, 0.05011468380689621, 0.49517117543562905, -0.10856192994029357, -4.40983640044331, -0.920383632183075, -1.216139316558838, -0.010867428034543991, 1.9631280899047852, 1.529128074645996, 0.920203447341919, 0.5268968343734741, 0.14808058738708496, 0.20660308003425598, 0.07891607284545898, 0.10208755731582642, 0.016349615529179573, -0.0005213775439187884, 0.030898064374923706, -0.05447673052549362, -0.029529359191656113, 0.00063735042931512
295235, 0.4972456991672516, -0.9769709706306458, 0.07594595849514008, 0.24034242178122983, -0.5734632109104609, -2.7059882110114963, -0.629956841468811, 0.04295385628938675, 0.05010117217898369, 0.5002983194839243, -0.11078372934960612, -4.417469042095171, -0.9196341037750244, -1.2158528566360474, -0.010321731679141521, 1.9630666971206665, 1.4977121353149414, 0.9205144643783569, 0.5270871520042419, 0.14804068207740784, 0.2066269963979721, 0.07890346646308899, 0.10209210216999054, 0.016163822263479233, -0.0005858340300619602, 0.030895307660102844, -0.05446716025471687, -0.1349215805530548, 0.0005121964495629072
295245, 0.4972516596317291, -0.9769559502601624, 0.07593042403459549, 0.2554721272025213, -0.5748512438148339, -2.7185207789528554, -0.6299440264701843, 0.04295603185892105, 0.05011485144495964, 0.4968384910535569, -0.10209575666613091, -4.405425600215998, -0.9198898673057556, -1.2155849933624268, -0.011220663785934448, 1.9631801843643188, 1.5100880861282349, 0.9208232760429382, 0.527278482913971, 0.14797207713127136, 0.20665086805820465, 0.07888885587453842, 0.10209638625383377, 0.05483197420835495, -0.0005554059171117842, 0.030896926298737526, -0.054460637271404266, -0.1332883983850479, 0.00042516793473623693
295255, 0.49724477529525757, -0.9769703149795532, 0.07596119493246078, 0.2461502816770716, -0.5771075066630544, -2.712072898956334, -0.6299599409103394, 0.04296284168958664, 0.050119221210479736, 0.49562190963725383, -0.1035835516889847, -4.407885302997504, -0.9188295006752014, -1.2148970365524292, -0.010500104166567326, 1.963126301765442, 1.486288070678711, 0.92116379737854, 0.5274306535720825, 0.1479264348745346, 0.20667392015457153, 0.07887561619281769, 0.10210287570953369, 0.054174263030290604, -0.0005619167350232601, 0.030896926298737526, -0.054460637271404266, -0.1332883983850479, 0.00034511310514062643
295265, 0.49723362922668457, -0.976965606212616, 0.07594049721956253, 0.249034309994482, -0.5829262887206994, -2.7253171747762597, -0.6299660801887512, 0.04295865073800087, 0.05013575777411461, 0.4990744394765337, -0.1022828142519927, -4.411073676066347, -0.9191887974739075, -1.2151366472244263, -0.011343231424689293, 1.9631794691085815, 1.5186561346054077, 0.9214774966239929, 0.5276194214820862, 0.14787538349628448, 0.20669786632061005, 0.07886378467082977, 0.1021110787987709, -0.017160683870315552, -0.0007462556241080165, 0.030905259773135185, -0.054453298449516296, -0.12669064104557037, 0.0004286490730009973
295275, 0.4972381591796875, -0.9769681096076965, 0.07592878490686417, 0.2578329097483791, -0.5832845175363275, -2.7207333451465074, -0.6299613118171692, 0.042969267815351486, 0.05012429505586624, 0.5012447280385565, -0.10354224596471795, -4.411113641080592, -0.9190886616706848, -1.2145060300827026, -0.010999280028045177, 1.9632928371429443, 1.4986640214920044, 0.9218217134475708, 0.5277643203735352, 0.14787033200263977, 0.20672065019607544, 0.0788562223315239, 0.1021200492978096, -0.017016267403960228, -0.0008072664495557547, 0.030910465866327286, -0.05445035174489021, -0.10750849545001984, 0.0004940873477607965
295285, 0.4972401261329651, -0.9769706130027771, 0.07594622671604156, 0.24698515860718698, -0.5789389187289657, -2.7148621926258993, -0.6299669146537781, 0.04296356812119484, 0.0501239076256752, 0.4960690572681643, -0.10825042564349019, -4.408817371241293, -0.9196670055389404, -1.2151579856872559, -0.011529875919222832, 1.9633185863494873, 1.5281760692596436, 0.9221601486206055, 0.5279279351234436, 0.14786222577095032, 0.20674434304237366, 0.07884921133518219, 0.10212636739015579, -0.06981301307678223, -0.0007521528168581426, 0.030910465866327286, -0.05445035174489021, -0.10750849545001984, 0.0004623742715921253
295295, 0.497249573469162, -0.9769740104675293, 0.07596741616725922, 0.24622756220669792, -0.5713565582378806, -2.7165222789635735, -0.6299602389335632, 0.04296160116791725, 0.05010705441236496, 0.49827511388055007, -0.10173180809053406, -4.407177998327073, -0.9204456210136414, -1.215890884399414, -0.011888047680258751, 1.963365077972412, 1.5329359769821167, 0.9224678874015808, 0.528118908405304, 0.14787600934505463, 0.20676814019680023, 0.07884396612644196, 0.10213291645050049, -0.06895079463720322, -0.0007144066039472818, 0.030918017029762268, -0.05444878712296486, -0.07655737549066544, 0.00034502524067647755
295305, 0.4972456693649292, -0.976963460445404, 0.0759597048163414, 0.24598874936216494, -0.5840899129019022, -2.7191200342575446, -0.6299560070037842, 0.04296122491359711, 0.05013175681233406, 0.5010016379313341, -0.10970981122204648, -4.408427266938052, -0.9194859266281128, -1.2160565853118896, -0.011741722002625465, 1.9631924629211426, 1.502471923828125, 0.9227679371833801, 0.5283136367797852, 0.14789165556430817, 0.2067917436361313, 0.07883792370557785, 0.10213859379291534, 0.005975621752440929, -0.0005861644167453051, 0.030926091596484184, -0.05444956198334694, -0.07561559230089188, 0.00031577027402818203
295315, 0.4973370432853699, -0.9769017100334167, 0.07593721151351929, 0.258895149359991, -0.5515870418427653, -2.7623573167633957, -0.6299512982368469, 0.04296071454882622, 0.05012960731983185, 0.5026911172913368, -0.09581656451305776, -4.407470552954298, -0.9198393225669861, -1.2170170545578003, -0.01301212701946497, 1.9631233215332031, 1.5319840908050537, 0.9230421185493469, 0.5285171866416931, 0.14789681136608124, 0.2068144977092743, 0.07883083075284958, 0.10214356333017349, 0.005756818689405918, -0.00043324605212546885, 0.03093056008219719, -0.05444759875535965, -0.09587731957435608, 0.00038246653275564313
295325, 0.4972549080848694, -0.9769622683525085, 0.07594691962003708, 0.2532400781844579, -0.5741142009560178, -2.723560926578727, -0.6299561262130737, 0.04296773672103882, 0.0500992126762867, 0.4916907464239835, -0.10857377096658638, -4.412699576983646, -0.9202184677124023, -1.2176144123077393, -0.014447718858718872, 1.9631168842315674, 1.5272239446640015, 0.9233826398849487, 0.5286418795585632, 0.1479065865278244, 0.20683571696281433, 0.07882612198591232, 0.10214709490537643, 0.0445404089987278, -0.00018870036001317203, 0.030932297930121422, -0.0544445626437664, -0.09468913078308105, 0.0006569086108356714
295335, 0.49724072217941284, -0.9769560098648071, 0.07595977932214737, 0.2521139291559883, -0.5848193960605386, -2.710729315995019, -0.6299683451652527, 0.04295995458960533, 0.050116412341594696, 0.4978571058784884, -0.09821689486369678, -4.40733767861202, -0.9208594560623169, -1.2174043655395508, -0.015534143894910812, 1.9632872343063354, 1.5177040100097656, 0.9237073659896851, 0.5287287831306458, 0.14789512753486633, 0.20685364305973053, 0.0788201093673706, 0.10215134173631668, 0.04414471238851547, -2.7090318326372653e-05, 0.030934398993849754, -0.054442089051008224, -0.1217988133430481, 0.0009304314735345542
295345, 0.49724113941192627, -0.9769628643989563, 0.07594359666109085, 0.24802540444361382, -0.583657157647167, -2.717241631825974, -0.629959762096405, 0.04296150058507919, 0.0501074381172657, 0.49890664450218924, -0.10238407318385612, -4.409012589580964, -0.9208287596702576, -1.2172365188598633, -0.01561054214835167, 1.9633305072784424, 1.5100880861282349, 0.9240300059318542, 0.5288185477256775, 0.14785856008529663, 0.2068716287612915, 0.07881296426057816, 0.10215417295694351, -0.00932073313742876, 0.00013293306983541697, 0.03093694895505905, -0.05444015562534332, -0.12027634680271149, 0.0010990839218720794
295355, 0.49724453687667847, -0.9769623875617981, 0.07593764364719391, 0.24923872604852979, -0.575675886128721, -2.7245596282778735, -0.6299585700035095, 0.042948100715875626, 0.050111155956983566, 0.49454198204005406, -0.1032097651659285, -4.405634824422933, -0.9209119081497192, -1.2173874378204346, -0.015688419342041016, 1.9633443355560303, 1.516752004623413, 0.9243505001068115, 0.5290041565895081, 0.1478247344493866, 0.20689554512500763, 0.07880563288927078, 0.10215911269187927, -0.009203099645674229, 0.0001419407344656065, 0.030937911942601204, -0.054437413811683655, -0.06942004710435867, 0.0012442802544683218
295365, 0.49725621938705444, -0.9769623875617981, 0.07594898343086243, 0.24257247839007315, -0.5730118597134606, -2.702626459046229, -0.6299540996551514, 0.04296374320983887, 0.050099559128284454, 0.49341423062179335, -0.10471542292339109, -4.405124365175127, -0.9206025004386902, -1.2169743776321411, -0.014837889932096004, 1.963381052017212, 1.502471923828125, 0.9246643781661987, 0.5291964411735535, 0.1478126049041748, 0.20691955089569092, 0.07879769057035446, 0.10216358304023743, -0.047905873507261276, 3.326439400552772e-05, 0.030937911942601204, -0.054437413811683655, -0.06942004710435867, 0.0012753144837915897
295375, 0.4972543716430664, -0.9769657850265503, 0.07597130537033081, 0.2505249721306963, -0.5779528398062439, -2.714960714891677, -0.6299557089805603, 0.04296321049332619, 0.05010892450809479, 0.4957416207838042, -0.10881373660336635, -4.406085904054914, -0.9207426309585571, -1.2171589136123657, -0.014956425875425339, 1.963403582572937, 1.5177040100097656, 0.9249828457832336, 0.5293846726417542, 0.14781488478183746, 0.20694352686405182, 0.07878737151622772, 0.10216689109802246, -0.047286078333854675, -4.5205422793515027e-05, 0.030935732647776604, -0.054432474076747894, -0.08914060145616531, 0.0013502779183909297
295385, 0.49727997183799744, -0.9769163727760315, 0.07596376538276672, 0.2638875784011261, -0.5711503403773861, -2.7176746209137144, -0.629954993724823, 0.04296083375811577, 0.05011401325464249, 0.4957643905179783, -0.10440349823085171, -4.411967107338113, -0.9202901124954224, -1.2165310382843018, -0.015221098437905312, 1.963454008102417, 1.4967601299285889, 0.9253020882606506, 0.5295718908309937, 0.14783255755901337, 0.20696750283241272, 0.07877880334854126, 0.10216882824897766, 0.06288239359855652, -0.00024593842681497335, 0.030932756140828133, -0.054428279399871826, -0.0879536122083664, 0.0013751384103670716
295395, 0.497338205575943, -0.9768903255462646, 0.07593968510627747, 0.25840573377191756, -0.5532093091293859, -2.7723575037147183, -0.6299566030502319, 0.042962752282619476, 0.050110261887311935, 0.4968115610350872, -0.10042038185585511, -4.402076486588165, -0.9202414751052856, -1.216493844985962, -0.016139749437570572, 1.9634828567504883, 1.5110399723052979, 0.9256250858306885, 0.5297556519508362, 0.14783796668052673, 0.20699147880077362, 0.07877076417207718, 0.10217024385929108, 0.06224729120731354, -0.00035194295924156904, 0.03092331439256668, -0.05442517623305321, -0.09046156704425812, 0.0013764442410320044
295405, 0.4972507655620575, -0.9769641757011414, 0.07596101611852646, 0.24961733249734905, -0.5748056153391587, -2.720341804469198, -0.6299537420272827, 0.04296083003282547, 0.05010698363184929, 0.4939439973158244, -0.0981411273274091, -4.406373382515567, -0.9199782013893127, -1.2161130905151367, -0.01648125983774662, 1.963526725769043, 1.502471923828125, 0.9259482026100159, 0.5299394130706787, 0.14784522354602814, 0.2070154845714569, 0.07876355946063995, 0.10217124223709106, 0.04747866094112396, -0.000253474892815575, 0.030913282185792923, -0.0544218011200428, -0.0894741415977478, 0.0013324437895789742
295415, 0.4972520172595978, -0.9769588708877563, 0.07596851140260696, 0.2434555839169422, -0.5746897215252034, -2.7157106964072875, -0.6299582719802856, 0.042958445847034454, 0.050119735300540924, 0.49581946320643216, -0.10310783242638877, -4.409565213701138, -0.9202550649642944, -1.2164838314056396, -0.017690284177660942, 1.9635443687438965, 1.5215119123458862, 0.9262717962265015, 0.5301228761672974, 0.1478467881679535, 0.2070394605398178, 0.07875566929578781, 0.10217209160327911, 0.04700912535190582, -0.00014120146806817502, 0.03090667352080345, -0.05441838875412941, -0.09201560169458389, 0.001300621428526938
295425, 0.49724024534225464, -0.97695392370224, 0.0759306252002716, 0.2516969506343691, -0.5823932245141066, -2.7259085264138747, -0.6299594640731812, 0.04295981302857399, 0.050097834318876266, 0.498291862537004, -0.1021661126078186, -4.406317333066719, -0.9207161664962769, -1.2170836925506592, -0.01848015747964382, 1.9635536670684814, 1.5281760692596436, 0.926592230796814, 0.5303095579147339, 0.14784947037696838, 0.2070634663105011, 0.0787457600235939, 0.1021728366613388, -0.020560136064887047, 0.00018064335745293647, 0.03090031072497368, -0.0544150173664093, -0.0910734087228775, 0.0012910107616335154
295435, 0.4973450005054474, -0.9768970608711243, 0.07595457881689072, 0.2567258540923946, -0.5410247086104505, -2.7727490836824344, -0.6299666166305542, 0.042958568781614304, 0.05010547488927841, 0.49885146607846076, -0.09959778314410528, -4.404738592094094, -0.9206467270851135, -1.216964840888977, -0.01851087249815464, 1.9635802507400513, 1.5100880861282349, 0.9269089102745056, 0.5305002331733704, 0.1478506624698639, 0.207087442278862, 0.07873690873384476, 0.10217408090829849, -0.020106542855501175, 0.00044396420707926154, 0.030896620824933052, -0.054410938173532486, -0.10421973466873169, 0.001314854365773499
295445, 0.49725285172462463, -0.9769562482833862, 0.0759454295039177, 0.2468166847887972, -0.5790035441562509, -2.7239784848917106, -0.6299506425857544, 0.042961739003658295, 0.05011200159788132, 0.49530962456707706, -0.10329956556461184, -4.409012380843702, -0.920586109161377, -1.2168482542037964, -0.019755229353904724, 1.9636049270629883, 1.5100880861282349, 0.9272226095199585, 0.5306941866874695, 0.14784355461597443, 0.2071114182472229, 0.07873023301362991, 0.10217531770467758, 0.11457425355911255, 0.0006766507285647094, 0.030896620824933052, -0.054410938173532486, -0.10421973466873169, 0.0013395724818110466
295455, 0.49724453687667847, -0.9769576787948608, 0.07594738155603409, 0.25649434405611465, -0.5776647433104642, -2.7281860474132835, -0.6299611330032349, 0.04296567291021347, 0.050132397562265396, 0.5003307760822278, -0.10005354072529826, -4.414210829113385, -0.9206323027610779, -1.2168844938278198, -0.020827079191803932, 1.9636247158050537, 1.5138959884643555, 0.9275331497192383, 0.5308915376663208, 0.14781878888607025, 0.2071353942155838, 0.07872127741575241, 0.10217559337615967, 0.11325634270906448, 0.0006364307482726872, 0.030880777165293694, -0.054405923932790756, -0.07008254528045654, 0.001356836291961372
295465, 0.49724656343460083, -0.9769572615623474, 0.07594956457614899, 0.25631688595790336, -0.5775455878140008, -2.7173743775410415, -0.6299548149108887, 0.042965784668922424, 0.05012114346027374, 0.5026254642331915, -0.09864493963237919, -4.411394242211553, -0.9206797480583191, -1.216916561126709, -0.021941762417554855, 1.9636473655700684, 1.5138959884643555, 0.9278440475463867, 0.5310887694358826, 0.1477869302034378, 0.2071593701839447, 0.07871214300394058, 0.10217681527137756, 0.12595655024051666, 0.0004998198710381985, 0.030869632959365845, -0.05440327897667885, -0.06915778666734695, 0.0013674859656021
295475, 0.4972444772720337, -0.9769538640975952, 0.07595919817686081, 0.24871041890467183, -0.5760238650330507, -2.7224197937836654, -0.6299667954444885, 0.042957138270139694, 0.05011162534356117, 0.49750743130502884, -0.10138665078690678, -4.409474207587638, -0.9205171465873718, -1.2166564464569092, -0.023080818355083466, 1.963679552078247, 1.5062801837921143, 0.9281573295593262, 0.5312837362289429, 0.14774121344089508, 0.2071833461523056, 0.07870610058307648, 0.10217634588479996, 0.12437493354082108, 0.0003965855576097965, 0.03085816465318203, -0.05440028756856918, -0.14599961042404175, 0.0013097475748509169
295485, 0.4972573220729828, -0.9769628047943115, 0.07596301287412643, 0.246114642847715, -0.5711113717099181, -2.714667382214425, -0.6299622654914856, 0.04296255484223366, 0.05010377988219261, 0.4937182365699042, -0.0953609154863102, -4.406223853238075, -0.9201149940490723, -1.2161463499069214, -0.023006414994597435, 1.9637131690979004, 1.4986640214920044, 0.9284723997116089, 0.5314772129058838, 0.14766333997249603, 0.2072073221206665, 0.07870151102542877, 0.10217685252428055, 0.04867570102214813, 6.654977914877236e-05, 0.03085816465318203, -0.05440028756856918, -0.14599961042404175, 0.0012816240778192878
295495, 0.4972498416900635, -0.9769530296325684, 0.07596207410097122, 0.2543707925425539, -0.5804854353245901, -2.7173243118955104, -0.6299594044685364, 0.04296049848198891, 0.05012442171573639, 0.500036949217621, -0.10222222620967614, -4.4122481746764945, -0.9217007756233215, -1.218276023864746, -0.026216764003038406, 1.9636824131011963, 1.5681599378585815, 0.9287908673286438, 0.5316675305366516, 0.14759613573551178, 0.2072313278913498, 0.07869575172662735, 0.10217808932065964, 0.04798736795783043, -0.0001245612947968766, 0.030838802456855774, -0.05439705401659012, -0.04012217000126839, 0.0012892077211290598
295505, 0.4972436726093292, -0.9769614934921265, 0.07596729695796967, 0.25334447934066684, -0.5780680858962057, -2.7164941942610277, -0.629954993724823, 0.04296189174056053, 0.05013629049062729, 0.4975220349815592, -0.09486621179794952, -4.406625622284412, -0.9217075109481812, -1.2181808948516846, -0.025814300402998924, 1.9637267589569092, 1.5129441022872925, 0.9291128516197205, 0.531853973865509, 0.14757367968559265, 0.2072553038597107, 0.07868953049182892, 0.10218007117509842, 0.04382922872900963, -0.00020636024419218302, 0.030828136950731277, -0.054395776242017746, -0.03970889002084732, 0.001287345658056438
295515, 0.49724146723747253, -0.9769574999809265, 0.07595610618591309, 0.24316859997526366, -0.5773898154724577, -2.7028202745052483, -0.6299552917480469, 0.0429556742310524, 0.05012016370892525, 0.4966514962361848, -0.10227560039928107, -4.409341979917537, -0.9210926294326782, -1.2174936532974243, -0.024363012984395027, 1.963755488395691, 1.4948561191558838, 0.9294392466545105, 0.532036304473877, 0.14748643338680267, 0.2072792500257492, 0.0786832720041275, 0.10218311101198196, 0.0433771088719368, -0.0002445956342853606, 0.030828136950731277, -0.054395776242017746, -0.03970889002084732, 0.001271230517886579
295525, 0.497236967086792, -0.9769496321678162, 0.07594960182905197, 0.24585668852612394, -0.5791566907799108, -2.7078599655310196, -0.629951536655426, 0.042966727167367935, 0.05012204870581627, 0.4957710329791066, -0.10566980562285266, -4.405585246212268, -0.9217921495437622, -1.2185057401657104, -0.025759274140000343, 1.963746190071106, 1.539599895477295, 0.9297605752944946, 0.5322239398956299, 0.14743250608444214, 0.2073032557964325, 0.07867610454559326, 0.10218832641839981, 0.060656387358903885, -0.00029527777223847806, 0.030810479074716568, -0.05439130589365959, -0.021371912211179733, 0.0011282742489129305
295535, 0.49723923206329346, -0.9769569635391235, 0.07594187557697296, 0.24807249261319944, -0.5753888537780085, -2.717460183304822, -0.6299557685852051, 0.0429619736969471, 0.05011790990829468, 0.49477546799137, -0.10057738794989746, -4.402705531029877, -0.9219570755958557, -1.2185543775558472, -0.026195310056209564, 1.9637938737869263, 1.5177040100097656, 0.9300882816314697, 0.5324045419692993, 0.14742499589920044, 0.20732717216014862, 0.07866612821817398, 0.10219284892082214, 0.060077980160713196, -0.0002750688581727445, 0.030802210792899132, -0.05438801273703575, -0.04940240830183029, 0.0009315560455434024
295545, 0.4972441494464874, -0.9769604802131653, 0.07595755159854889, 0.24949540143676271, -0.5769415033671805, -2.7056468286245563, -0.6299504041671753, 0.042958393692970276, 0.05011685565114021, 0.4935231713090727, -0.09751542753386389, -4.406239959263743, -0.9216939210891724, -1.218242883682251, -0.025504527613520622, 1.963818907737732, 1.5062801837921143, 0.9304196834564209, 0.5325803756713867, 0.14739392697811127, 0.2073509693145752, 0.07865578681230545, 0.10219594836235046, -0.0007205682341009378, -0.00011316275777062401, 0.030802210792899132, -0.05438801273703575, -0.04940240830183029, 0.0006926452624611557
