timeTick, roll, pitch, yaw, accX, accY, accZ, baro, m1, m2, m3, m4, thrust, vbat, otX0, otY0, otZ0, otRoll0, otPitch0, otYaw0
464066, 0.8429771661758423, -1.886483073234558, 2.0482370853424072, 0, 0, 0, 0, 0, 0, 0, 0, 0, 0, -1.682270884513855, -1.8455561399459839, 0.08897155523300171, 0.13538163432261127, -1.0041812226939726, -1.9473796511440506
464076, 0.8436597585678101, -1.8870025873184204, 2.047899007797241, -0.030115801841020584, 0.01470991875976324, 1.000417709350586, 0.06562042236328125, 9362.0, 28835.0, 32767.0, 9362.0, 0.0, 7.676033973693848, -1.6820199489593506, -1.8455607891082764, 0.08902706950902939, 0.14615359514559526, -0.9686680730895318, -1.9605088860039241
464086, 0.8430386781692505, -1.8875840902328491, 2.0466182231903076, -0.030866608023643494, 0.012633852660655975, 0.9986427426338196, 0.06562042236328125, 9362.0, 28835.0, 32767.0, 9362.0, 0.0, 7.676033973693848, -1.6822428703308105, -1.8454831838607788, 0.08894854038953781, 0.06420716257045325, -1.0202847522770924, -1.9437514964010416
464096, 0.842314600944519, -1.8873831033706665, 2.047100067138672, -0.029698602855205536, 0.013440480455756187, 0.9987064599990845, 0.0, 9362.0, 28835.0, 32767.0, 9362.0, 0.0, 7.676033973693848, -1.6822545528411865, -1.8455547094345093, 0.08898687362670898, 0.14169729846086285, -1.0078973311766504, -1.9501666039109553
464106, 0.8437092900276184, -1.8878926038742065, 2.0471951961517334, -0.02914334461092949, 0.01379634439945221, 0.9993937015533447, 0.0, 9362.0, 28835.0, 32767.0, 9362.0, 0.0, 7.676033973693848, -1.6821527481079102, -1.8455700874328613, 0.08903273195028305, 0.15165140560338097, -0.9728106223644204, -1.9726554133027758
464116, 0.8436868190765381, -1.888178825378418, 2.0461275577545166, -0.03025021404027939, 0.015698697417974472, 1.0009838342666626, 0.005462646484375, 9362.0, 28835.0, 32767.0, 9362.0, 0.0, 7.676033973693848, -1.6821388006210327, -1.8454862833023071, 0.08898559957742691, 0.08692668745069129, -0.9813577868984851, -1.9747291192349588
464126, 0.8444632291793823, -1.8884856700897217, 2.0463855266571045, -0.03353308141231537, 0.013488522730767727, 1.000718116760254, 0.005462646484375, 9362.0, 28835.0, 32767.0, 9362.0, 0.0, 7.676033973693848, -1.6822491884231567, -1.8455473184585571, 0.08901569992303848, 0.1363360193401326, -1.0054156188196828, -1.9563339661862356
464136, 0.8425095677375793, -1.8872216939926147, 2.044686794281006, -0.032227836549282074, 0.012247341684997082, 1.0021731853485107, -0.02187347412109375, 9362.0, 28835.0, 32767.0, 9362.0, 0.0, 7.676033973693848, -1.6822630167007446, -1.845479130744934, 0.08894272893667221, 0.0644586592708763, -1.005822311363687, -1.9485637186924325
464146, 0.8409610986709595, -1.887559413909912, 2.0443778038024902, -0.028943751007318497, 0.011676663532853127, 1.0013116598129272, -0.02187347412109375, 9362.0, 28835.0, 32767.0, 9362.0, 0.0, 7.695868015289307, -1.6821364164352417, -1.8455568552017212, 0.0890449732542038, 0.149998971848263, -0.9623715110423632, -1.976174804502935
464156, 0.8404706120491028, -1.8883843421936035, 2.0437729358673096, -0.028186894953250885, 0.012558067217469215, 1.0001826286315918, -0.03554534912109375, 9362.0, 28835.0, 32767.0, 9362.0, 0.0, 7.695868015289307, -1.6822503805160522, -1.845482587814331, 0.08896095305681229, 0.06785515703525856, -1.0210956368867699, -1.9476837548819441
464166, 0.839338481426239, -1.8884767293930054, 2.0417158603668213, -0.02866589091718197, 0.013751024380326271, 1.0007832050323486, -0.03554534912109375, 9362.0, 28835.0, 32767.0, 9362.0, 0.0, 7.676033973693848, -1.681810975074768, -1.8456085920333862, 0.08926486223936081, 0.14306175982883054, -0.9558138403931764, -2.00192087373488
464176, 0.8405722379684448, -1.8886680603027344, 2.0420081615448, -0.030536344274878502, 0.014798332937061787, 1.0031147003173828, 0.0355377197265625, 9362.0, 28835.0, 32767.0, 9362.0, 0.0, 7.676033973693848, -1.6821609735488892, -1.8455504179000854, 0.0890514999628067, 0.15416061654685442, -0.9620766682914734, -1.9812199614227328
464186, 0.8405646681785583, -1.8884680271148682, 2.0411064624786377, -0.029439687728881836, 0.012180113233625889, 1.0014528036117554, 0.0355377197265625, 9362.0, 28835.0, 32767.0, 9362.0, 0.0, 7.676033973693848, -1.6822724342346191, -1.845555305480957, 0.08897998183965683, 0.13515439546627459, -1.000714732333023, -1.9521395474756675
464196, 0.8401560187339783, -1.8886754512786865, 2.0402543544769287, -0.028975624591112137, 0.013787413015961647, 0.9998120069503784, 0.04100799560546875, 9362.0, 28835.0, 32767.0, 9362.0, 0.0, 7.676033973693848, -1.682180404663086, -1.8454859256744385, 0.08897610753774643, 0.08255984697236765, -0.9525153715162276, -1.9821914199071462
464206, 0.8386208415031433, -1.8865559101104736, 2.039355754852295, -0.02880200557410717, 0.013487396761775017, 0.9999966025352478, 0.04100799560546875, 9362.0, 28835.0, 32767.0, 9362.0, 0.0, 7.676033973693848, -1.6821680068969727, -1.8455501794815063, 0.08903788030147552, 0.16033484073227527, -0.9622144191699817, -1.9853381693628518
464216, 0.8392717838287354, -1.8883286714553833, 2.039199113845825, -0.031196918338537216, 0.01319364458322525, 1.0003103017807007, 0.07108306884765625, 9362.0, 28835.0, 32767.0, 9362.0, 0.0, 7.676033973693848, -1.6821496486663818, -1.8455512523651123, 0.08902809023857117, 0.146260686172384, -0.9659856738861379, -1.98279616271438
464226, 0.8385846614837646, -1.887193202972412, 2.040076732635498, -0.031352750957012177, 0.013338709250092506, 1.000434398651123, 0.07108306884765625, 9362.0, 28835.0, 32767.0, 9362.0, 0.0, 7.676033973693848, -1.6822668313980103, -1.845560073852539, 0.0889999270439148, 0.14411185057101722, -1.008136907837752, -1.9579184397170661
464236, 0.8388405442237854, -1.8835597038269043, 2.0400803089141846, -0.029530739411711693, 0.013643809594213963, 1.0006988048553467, 0.112091064453125, 9362.0, 28835.0, 32767.0, 9362.0, 0.0, 7.676033973693848, -1.682155728340149, -1.8455588817596436, 0.08904846757650375, 0.1609825069956747, -0.9547140124958275, -1.9749381034795312
464246, 0.8380342125892639, -1.8835902214050293, 2.039088249206543, -0.029934437945485115, 0.012893889099359512, 0.9999189376831055, 0.112091064453125, 9362.0, 28835.0, 32767.0, 9362.0, 0.0, 7.676033973693848, -1.6821672916412354, -1.8455476760864258, 0.08908488601446152, 0.15535999208237994, -0.9678903976699473, -1.988311329258461
464256, 0.8373521566390991, -1.8840062618255615, 2.0375614166259766, -0.030457396060228348, 0.013049043715000153, 1.0006219148635864, 0.032806396484375, 9362.0, 28835.0, 32767.0, 9362.0, 0.0, 7.676033973693848, -1.6821620464324951, -1.8454924821853638, 0.08903849124908447, 0.08153226306127806, -0.9656104628113269, -1.985961805802993
464266, 0.8365527987480164, -1.8848073482513428, 2.036364793777466, -0.029886094853281975, 0.012577376328408718, 1.00209641456604, 0.032806396484375, 9362.0, 28835.0, 32767.0, 9362.0, 0.0, 7.676033973693848, -1.6822526454925537, -1.8455525636672974, 0.08899375796318054, 0.14269568269028257, -1.0038757029697365, -1.9605154067675699
464276, 0.8366107940673828, -1.8870387077331543, 2.035691499710083, -0.03072127141058445, 0.012300328351557255, 1.0007212162017822, 0.06287384033203125, 9362.0, 28835.0, 32767.0, 9362.0, 0.0, 7.676033973693848, -1.6821585893630981, -1.8455533981323242, 0.08903426676988602, 0.1498985007833154, -0.9511063688477464, -1.9889890238785617
464286, 0.8377033472061157, -1.887158751487732, 2.033635139465332, -0.029979446902871132, 0.012949716299772263, 0.9987640976905823, 0.06287384033203125, 9362.0, 28835.0, 32767.0, 9362.0, 0.0, 7.695868015289307, -1.682268500328064, -1.8455567359924316, 0.0889897346496582, 0.1390720350314307, -1.0115477004887907, -1.9554001717233662
464296, 0.8367144465446472, -1.8874348402023315, 2.032977819442749, -0.02901894971728325, 0.012055921368300915, 0.9997323155403137, -0.0574188232421875, 9362.0, 28835.0, 32767.0, 9362.0, 0.0, 7.676033973693848, -1.6822654008865356, -1.8455533981323242, 0.08899004757404327, 0.13922748751471462, -1.0129100623785519, -1.9615243821558206
464306, 0.8363489508628845, -1.8872950077056885, 2.032222270965576, -0.030157120898365974, 0.014567116275429726, 1.0011833906173706, -0.0574188232421875, 9362.0, 28835.0, 32767.0, 9362.0, 0.0, 7.676033973693848, -1.682267427444458, -1.845560073852539, 0.0889936089515686, 0.14125848009855568, -0.998154972079476, -1.9581657110949748
464316, 0.8367424607276917, -1.8873649835586548, 2.031158208847046, -0.029772840440273285, 0.014926078729331493, 1.0010569095611572, -0.02734375, 9362.0, 28835.0, 32767.0, 9362.0, 0.0, 7.695868015289307, -1.6822394132614136, -1.8455512523651123, 0.08900361508131027, 0.13603294747833092, -1.0012143568897045, -1.943958240269182
464326, 0.837888777256012, -1.8885902166366577, 2.029313802719116, -0.02697199396789074, 0.012667563743889332, 1.0007617473602295, -0.02734375, 9362.0, 28835.0, 32767.0, 9362.0, 0.0, 7.695868015289307, -1.6822571754455566, -1.8454821109771729, 0.08894970268011093, 0.06575502231001744, -1.0066858221470625, -1.9387422344991754
464336, 0.8383172154426575, -1.887458086013794, 2.0283491611480713, -0.028198078274726868, 0.013079823926091194, 1.0010918378829956, -0.10662841796875, 9362.0, 28835.0, 32767.0, 9362.0, 0.0, 7.695868015289307, -1.6821491718292236, -1.845482587814331, 0.08898763358592987, 0.09078452407319759, -0.9579210378440166, -1.9748423094776322
464346, 0.8396487236022949, -1.8859823942184448, 2.0277655124664307, -0.02855263650417328, 0.015496380627155304, 1.0022939443588257, -0.10662841796875, 9362.0, 28835.0, 32767.0, 9362.0, 0.0, 7.695868015289307, -1.6822357177734375, -1.845555067062378, 0.08899775892496109, 0.136119361766211, -1.0151707235721403, -1.9504884331143326
464356, 0.8389630913734436, -1.8849003314971924, 2.027695894241333, -0.02985643781721592, 0.014196440577507019, 0.9999974966049194, -0.1640472412109375, 9362.0, 28835.0, 32767.0, 9362.0, 0.0, 7.676033973693848, -1.682266354560852, -1.845550298690796, 0.08897437900304794, 0.14370875575176417, -0.9957731891481956, -1.943118841242511
464366, 0.8383697867393494, -1.8856979608535767, 2.0263750553131104, -0.030514808371663094, 0.01316610537469387, 1.0000336170196533, -0.1640472412109375, 9362.0, 28835.0, 32767.0, 9362.0, 0.0, 7.695868015289307, -1.6822597980499268, -1.8455517292022705, 0.08901198208332062, 0.13390163317359755, -1.0164563754255198, -1.9489660774687734
464376, 0.8402161598205566, -1.8860158920288086, 2.025365114212036, -0.030084475874900818, 0.015599178150296211, 1.0000078678131104, -0.09842681884765625, 9362.0, 28835.0, 32767.0, 9362.0, 0.0, 7.676033973693848, -1.682132363319397, -1.8455651998519897, 0.08907554298639297, 0.15924522516619322, -0.9760319555087165, -1.9887527753566534
464386, 0.8415343761444092, -1.8874733448028564, 2.0233263969421387, -0.028926704078912735, 0.01357150636613369, 0.9993354082107544, -0.09842681884765625, 9362.0, 28835.0, 32767.0, 9362.0, 0.0, 7.676033973693848, -1.6821597814559937, -1.845561146736145, 0.08903944492340088, 0.15809278112351355, -0.9570002546979595, -1.9914284275207843
464396, 0.8419692516326904, -1.8889986276626587, 2.022634267807007, -0.030857715755701065, 0.011538844555616379, 1.0002659559249878, -0.11209869384765625, 9362.0, 28835.0, 32767.0, 9362.0, 0.0, 7.695868015289307, -1.6822800636291504, -1.8454926013946533, 0.08895537257194519, 0.06923831494642549, -1.0112655863036082, -1.9482956193565404
464406, 0.8421970009803772, -1.889386773109436, 2.0225276947021484, -0.031218525022268295, 0.012778172269463539, 1.0019274950027466, -0.11209869384765625, 9362.0, 28835.0, 32767.0, 9362.0, 0.0, 7.695868015289307, -1.6821646690368652, -1.8455511331558228, 0.08903838694095612, 0.15480313947762148, -0.9745365511232364, -1.9827948059280565
464416, 0.8431506156921387, -1.890539526939392, 2.022800922393799, -0.030452530831098557, 0.014275948517024517, 1.0009081363677979, -0.1038970947265625, 9362.0, 28835.0, 32767.0, 9362.0, 0.0, 7.695868015289307, -1.6821374893188477, -1.8455618619918823, 0.08907109498977661, 0.15754561389673402, -0.9719993539148675, -1.9805023645738964
464426, 0.8423985242843628, -1.8914916515350342, 2.0216317176818848, -0.030730165541172028, 0.014970111660659313, 1.0002055168151855, -0.1038970947265625, 9362.0, 28835.0, 32767.0, 9362.0, 0.0, 7.695868015289307, -1.6822419166564941, -1.8455532789230347, 0.08901387453079224, 0.13468016680400638, -1.0102280209769674, -1.9453751306968854
464436, 0.8418859243392944, -1.8906599283218384, 2.02030348777771, -0.029003268107771873, 0.013655897229909897, 1.0000228881835938, -0.0847625732421875, 9362.0, 28835.0, 32767.0, 9362.0, 0.0, 7.695868015289307, -1.6823022365570068, -1.8457331657409668, 0.08882345259189606, 0.10729712070578327, -0.9791334321982674, -1.855354570674569
464446, 0.8427208662033081, -1.8918237686157227, 2.020629644393921, -0.030661605298519135, 0.012417229823768139, 1.0013315677642822, -0.0847625732421875, 9362.0, 28835.0, 32767.0, 9362.0, 0.0, 7.695868015289307, -1.6821590662002563, -1.8455685377120972, 0.08905840665102005, 0.15790909508884704, -0.9717520176789094, -1.9870546077948152
464456, 0.8428476452827454, -1.8908840417861938, 2.020646810531616, -0.030446255579590797, 0.012937642633914948, 1.0021116733551025, -0.060150146484375, 9362.0, 28835.0, 32767.0, 9362.0, 0.0, 7.676033973693848, -1.6822432279586792, -1.8454943895339966, 0.08892815560102463, 0.062376116209408805, -1.0164882357862552, -1.9438695634784002
464466, 0.843846321105957, -1.8914265632629395, 2.0207483768463135, -0.03003847785294056, 0.015215527266263962, 0.9999819993972778, -0.060150146484375, 9362.0, 28835.0, 32767.0, 9362.0, 0.0, 7.676033973693848, -1.6821359395980835, -1.8455479145050049, 0.0890377089381218, 0.15662386912564905, -0.9687653742728628, -1.9899869918952455
464476, 0.8448294997215271, -1.8924345970153809, 2.0206756591796875, -0.03067139908671379, 0.014694936573505402, 0.9997766017913818, -0.03281402587890625, 9362.0, 28835.0, 32767.0, 9362.0, 0.0, 7.676033973693848, -1.6821612119674683, -1.8455809354782104, 0.08904968947172165, 0.15403797980471332, -0.9684493667615754, -1.9912567680151805
464486, 0.8457866311073303, -1.8931334018707275, 2.019672393798828, -0.031530097126960754, 0.013533986173570156, 1.0012760162353516, -0.03281402587890625, 9362.0, 28835.0, 32767.0, 9362.0, 0.0, 7.676033973693848, -1.6822600364685059, -1.8455477952957153, 0.08902501314878464, 0.1388873147686757, -1.02054285743003, -1.9657412154980296
464496, 0.845537543296814, -1.8940141201019287, 2.0189990997314453, -0.028501980006694794, 0.01359345018863678, 1.0016076564788818, -0.0847625732421875, 9362.0, 28835.0, 32767.0, 9362.0, 0.0, 7.695868015289307, -1.6821699142456055, -1.8454809188842773, 0.08899693191051483, 0.08189665212427912, -0.9660052217206214, -1.9800553049873897
464506, 0.8455855846405029, -1.8942147493362427, 2.0175180435180664, -0.03077194094657898, 0.013007714413106441, 1.0006639957427979, -0.0847625732421875, 9362.0, 28835.0, 32767.0, 9362.0, 0.0, 7.676033973693848, -1.6821640729904175, -1.8454787731170654, 0.0889802873134613, 0.08640838785297694, -0.9637888866071194, -1.9744803667349646
464516, 0.8444007039070129, -1.8942619562149048, 2.016167640686035, -0.029857218265533447, 0.012043901719152927, 1.00078547000885, -0.06288909912109375, 9362.0, 28835.0, 32767.0, 9362.0, 0.0, 7.676033973693848, -1.6821414232254028, -1.845551609992981, 0.08906961977481842, 0.15819390117716603, -0.965166558851223, -1.9987429162351493
464526, 0.8444096446037292, -1.8954910039901733, 2.0167083740234375, -0.030360186472535133, 0.012399056926369667, 1.00169837474823, -0.06288909912109375, 9362.0, 28835.0, 32767.0, 9362.0, 0.0, 7.676033973693848, -1.6822470426559448, -1.8455640077590942, 0.08898460865020752, 0.13533861186651192, -1.002036576016053, -1.9545001430968552
464536, 0.8445594906806946, -1.8959664106369019, 2.015291213989258, -0.03037048876285553, 0.014204587787389755, 1.0004878044128418, -0.087493896484375, 9362.0, 28835.0, 32767.0, 9362.0, 0.0, 7.676033973693848, -1.682170033454895, -1.8455582857131958, 0.08902943134307861, 0.1518114783528634, -0.9598666696925591, -1.990902134760397
464546, 0.8439260125160217, -1.895784616470337, 2.0144362449645996, -0.030470777302980423, 0.01512590516358614, 0.9994138479232788, -0.087493896484375, 9362.0, 28835.0, 32767.0, 9362.0, 0.0, 7.695868015289307, -1.6821562051773071, -1.845565915107727, 0.08903797715902328, 0.15884105100414175, -0.9592081449814884, -1.9773150953694703
464556, 0.8444244861602783, -1.8958954811096191, 2.013582229614258, -0.030357906594872475, 0.01327452901750803, 1.0000885725021362, -0.13944244384765625, 9362.0, 28835.0, 32767.0, 9362.0, 0.0, 7.695868015289307, -1.682157039642334, -1.8455642461776733, 0.08904943615198135, 0.1553087078648049, -0.9587673061034536, -1.9838012029044452
464566, 0.8412061333656311, -1.8969104290008545, 2.0108022689819336, -0.030195683240890503, 0.012982605956494808, 1.0018812417984009, -0.13944244384765625, 9362.0, 28835.0, 32767.0, 9362.0, 0.0, 7.676033973693848, -1.682268738746643, -1.8455621004104614, 0.0890120193362236, 0.14154804526166376, -1.0017822993241339, -1.9614775547815506
464576, 0.8416916131973267, -1.8986334800720215, 2.0104763507843018, -0.03048618882894516, 0.012770004570484161, 1.0003128051757812, -0.09295654296875, 9362.0, 28835.0, 32767.0, 9362.0, 0.0, 7.695868015289307, -1.6821622848510742, -1.8455663919448853, 0.08904761075973511, 0.1597203706586233, -0.9612636239245944, -1.9885836439527373
464586, 0.8408676981925964, -1.8966342210769653, 2.00879168510437, -0.031158052384853363, 0.012982743792235851, 1.00202214717865, -0.09295654296875, 9362.0, 28835.0, 32767.0, 9362.0, 0.0, 7.695868015289307, -1.6821595430374146, -1.845557689666748, 0.08905204385519028, 0.15477391708468824, -0.9673694375785828, -1.9947269091541633
464596, 0.8419639468193054, -1.8964587450027466, 2.0073940753936768, -0.03025474026799202, 0.015026625245809555, 1.001036524772644, -0.0902252197265625, 9362.0, 28835.0, 32767.0, 9362.0, 0.0, 7.676033973693848, -1.6821850538253784, -1.8454668521881104, 0.08901813626289368, 0.07849605141131576, -0.950150455638834, -1.9833712267572525
464606, 0.8414666652679443, -1.8965264558792114, 2.00805926322937, -0.029229335486888885, 0.013408148661255836, 1.0002645254135132, -0.0902252197265625, 9362.0, 28835.0, 32767.0, 9362.0, 0.0, 7.676033973693848, -1.6821579933166504, -1.8455642461776733, 0.08905021101236343, 0.16042488186396822, -0.9571264003340048, -1.9880275213021654
464616, 0.8419063091278076, -1.897840976715088, 2.007840394973755, -0.030136005952954292, 0.0130546186119318, 0.9992784261703491, 0.06014251708984375, 9362.0, 28835.0, 32767.0, 9362.0, 0.0, 7.695868015289307, -1.6821644306182861, -1.8455650806427002, 0.08907880634069443, 0.15081789654821942, -0.9662389461030614, -1.993253934887351
464626, 0.8446475863456726, -1.8999446630477905, 2.008352756500244, -0.028904985636472702, 0.013285703957080841, 1.0008447170257568, 0.06014251708984375, 9362.0, 28835.0, 32767.0, 9362.0, 0.0, 7.695868015289307, -1.682184100151062, -1.8455748558044434, 0.08907590806484222, 0.1532652400675499, -0.9603139419347144, -1.9806294226031838
464636, 0.8451594114303589, -1.8996467590332031, 2.0067520141601562, -0.030067717656493187, 0.01394670270383358, 0.9993398785591125, 0.032806396484375, 9362.0, 28835.0, 32767.0, 9362.0, 0.0, 7.695868015289307, -1.6821850538253784, -1.8455663919448853, 0.08907311409711838, 0.15411686442797629, -0.9613038474943494, -1.983509537326385
464646, 0.8456358313560486, -1.8985744714736938, 2.00516414642334, -0.031017377972602844, 0.015281586907804012, 1.0011298656463623, 0.032806396484375, 9362.0, 28835.0, 32767.0, 9362.0, 0.0, 7.695868015289307, -1.6821638345718384, -1.8455582857131958, 0.08905934542417526, 0.15257929655667335, -0.9594032706969244, -1.991611496678398
464656, 0.8467305302619934, -1.898331880569458, 2.004086494445801, -0.029738061130046844, 0.014987938106060028, 1.002040147781372, -0.01641082763671875, 9362.0, 28835.0, 32767.0, 9362.0, 0.0, 7.676033973693848, -1.6821743249893188, -1.8455567359924316, 0.08906126022338867, 0.15243877487713392, -0.9607036475440793, -1.9953640974447586
464666, 0.8466678261756897, -1.8997598886489868, 2.001868486404419, -0.02927572652697563, 0.014151298440992832, 0.99982750415802, -0.01641082763671875, 9362.0, 28835.0, 32767.0, 9362.0, 0.0, 7.695868015289307, -1.6821802854537964, -1.8455580472946167, 0.08905687928199768, 0.14977784176450015, -0.966185046168647, -1.9901816777342582
464676, 0.8458721041679382, -1.89752995967865, 2.001427412033081, -0.030559010803699493, 0.013490328565239906, 0.9998675584793091, -0.02187347412109375, 9362.0, 28835.0, 32767.0, 9362.0, 0.0, 7.695868015289307, -1.6821670532226562, -1.845561146736145, 0.08907536417245865, 0.15079796248466282, -0.9734812766415359, -1.9812262947444377
464686, 0.8465304374694824, -1.898271918296814, 2.0000929832458496, -0.029752157628536224, 0.012084589339792728, 1.0023659467697144, -0.02187347412109375, 9362.0, 28835.0, 32767.0, 9362.0, 0.0, 7.695868015289307, -1.6822662353515625, -1.845555305480957, 0.08900933712720871, 0.132920967555535, -1.0082569176534832, -1.9603816375427197
464696, 0.8467742800712585, -1.898026466369629, 1.9986636638641357, -0.030475443229079247, 0.01395419705659151, 1.0002942085266113, -0.060150146484375, 9362.0, 28835.0, 32767.0, 9362.0, 0.0, 7.695868015289307, -1.6821550130844116, -1.845555067062378, 0.08904950320720673, 0.1491759122237231, -0.9706572918670986, -1.9776275252255762
464706, 0.8471052050590515, -1.8986586332321167, 1.9972128868103027, -0.029391266405582428, 0.015430500730872154, 0.9996520280838013, -0.060150146484375, 9362.0, 28835.0, 32767.0, 9362.0, 0.0, 7.695868015289307, -1.682283639907837, -1.8455501794815063, 0.08900413662195206, 0.12919869577460794, -1.006998117070026, -1.9531902054888308
464716, 0.8458324670791626, -1.897186279296875, 1.9961432218551636, -0.02962641417980194, 0.014685707166790962, 1.0024607181549072, -0.06562042236328125, 9362.0, 28835.0, 32767.0, 9362.0, 0.0, 7.676033973693848, -1.6821660995483398, -1.845473051071167, 0.08898729085922241, 0.08509983131486344, -0.9573146226326799, -1.970083594339354
464726, 0.8464873433113098, -1.8993595838546753, 1.9948416948318481, -0.02846767008304596, 0.014550215564668179, 1.0032013654708862, -0.06562042236328125, 9362.0, 28835.0, 32767.0, 9362.0, 0.0, 7.676033973693848, -1.6821449995040894, -1.8455719947814941, 0.08907535672187805, 0.14628559606049268, -0.9653244467351954, -1.9740008886022222
464736, 0.846640944480896, -1.8994371891021729, 1.9940032958984375, -0.029689792543649673, 0.012906897813081741, 1.0013325214385986, -0.04648590087890625, 9362.0, 28835.0, 32767.0, 9362.0, 0.0, 7.676033973693848, -1.6821423768997192, -1.8455592393875122, 0.08906915038824081, 0.15448602128416442, -0.972681801953712, -1.973190039320188
464746, 0.8468040823936462, -1.900413990020752, 1.9928306341171265, -0.03311505541205406, 0.01599893346428871, 0.9979144930839539, -0.04648590087890625, 9362.0, 28835.0, 32767.0, 9362.0, 0.0, 7.695868015289307, -1.682184100151062, -1.8455500602722168, 0.0890403687953949, 0.15442513448725242, -0.9635667834837705, -1.9828782578839508
464756, 0.8469699025154114, -1.8991795778274536, 1.9927009344100952, -0.031958647072315216, 0.01631004922091961, 0.9976757168769836, -0.1093597412109375, 9362.0, 28835.0, 32767.0, 9362.0, 0.0, 7.695868015289307, -1.6821620464324951, -1.8455601930618286, 0.08902419358491898, 0.1588362804221852, -0.9672994381931517, -1.9836153914529469
464766, 0.8472009301185608, -1.8978335857391357, 1.9920896291732788, -0.029309729114174843, 0.011175617575645447, 0.9998804330825806, -0.1093597412109375, 9362.0, 28835.0, 32767.0, 9362.0, 0.0, 7.695868015289307, -1.6822503805160522, -1.8454660177230835, 0.08894110471010208, 0.06549485431828327, -1.0268505771323078, -1.9537333549048845
464776, 0.846996009349823, -1.8975557088851929, 1.991892695426941, -0.030030742287635803, 0.012143771164119244, 1.0002819299697876, -0.09295654296875, 9362.0, 28835.0, 32767.0, 9362.0, 0.0, 7.695868015289307, -1.6822541952133179, -1.845563292503357, 0.08898890018463135, 0.1386467358347462, -1.0092790357781496, -1.953109564665322
464786, 0.8457903265953064, -1.8990825414657593, 1.9902455806732178, -0.03244316205382347, 0.01291691418737173, 1.000923991203308, -0.09295654296875, 9362.0, 28835.0, 32767.0, 9362.0, 0.0, 7.695868015289307, -1.6818428039550781, -1.845544457435608, 0.08922801166772842, 0.06715247505689494, -0.9496090235337249, -1.9989987832213127
464796, 0.845212459564209, -1.8985481262207031, 1.989189624786377, -0.030447011813521385, 0.013319050893187523, 1.001810073852539, -0.11483001708984375, 9362.0, 28835.0, 32767.0, 9362.0, 0.0, 7.695868015289307, -1.6821539402008057, -1.8455560207366943, 0.08904440701007843, 0.15435483209962003, -0.9673431523885938, -1.9818471481539657
464806, 0.8455105423927307, -1.8982656002044678, 1.98807954788208, -0.02920210361480713, 0.01464453898370266, 1.0018490552902222, -0.11483001708984375, 9362.0, 28835.0, 32767.0, 9362.0, 0.0, 7.695868015289307, -1.6822779178619385, -1.845474362373352, 0.08895441889762878, 0.07095519980884538, -1.0048293859406954, -1.9417624377122018
464816, 0.8449664115905762, -1.8993967771530151, 1.987006664276123, -0.03005628101527691, 0.013075300492346287, 1.001760482788086, -0.2296600341796875, 9362.0, 28835.0, 32767.0, 9362.0, 0.0, 7.695868015289307, -1.6822686195373535, -1.8454796075820923, 0.08899971097707748, 0.06329900235289831, -1.0002541892681336, -1.9500679634853773
464826, 0.8439943790435791, -1.8980634212493896, 1.985769271850586, -0.03092588670551777, 0.012123187072575092, 1.0008999109268188, -0.2296600341796875, 9362.0, 28835.0, 32767.0, 9362.0, 0.0, 7.695868015289307, -1.682253360748291, -1.8455535173416138, 0.08900139480829239, 0.13314388721561712, -1.006776443859053, -1.9504301251930833
464836, 0.8447369933128357, -1.8981823921203613, 1.98513662815094, -0.03019842877984047, 0.013763884082436562, 1.0010347366333008, -0.15857696533203125, 9362.0, 28835.0, 32767.0, 9362.0, 0.0, 7.695868015289307, -1.6821647882461548, -1.845489501953125, 0.08898365497589111, 0.0775324439796021, -0.9732641654135818, -1.9744051904350104
464846, 0.8446243405342102, -1.899601697921753, 1.985101342201233, -0.030292494222521782, 0.013461867347359657, 1.0016666650772095, -0.15857696533203125, 9362.0, 28835.0, 32767.0, 9362.0, 0.0, 7.695868015289307, -1.68226158618927, -1.8455536365509033, 0.0889844298362732, 0.13177653308974172, -1.0129202773688348, -1.949621490699613
464856, 0.8430519104003906, -1.8997329473495483, 1.983991265296936, -0.029612891376018524, 0.012921658344566822, 1.0014915466308594, -0.153106689453125, 9362.0, 28835.0, 32767.0, 9362.0, 0.0, 7.695868015289307, -1.6821187734603882, -1.845546841621399, 0.08907189220190048, 0.1505951909488822, -0.9685460963922026, -1.9826699551143916
464866, 0.8437702059745789, -1.9003098011016846, 1.9836513996124268, -0.028872329741716385, 0.014425159431993961, 1.0004302263259888, -0.153106689453125, 9362.0, 28835.0, 32767.0, 9362.0, 0.0, 7.676033973693848, -1.6821720600128174, -1.8455626964569092, 0.08904820680618286, 0.15093869107902277, -0.957553858269506, -1.9870620463282425
464876, 0.8425061702728271, -1.90142023563385, 1.982505440711975, -0.030776694416999817, 0.013718506321310997, 1.0001822710037231, -0.13396453857421875, 9362.0, 28835.0, 32767.0, 9362.0, 0.0, 7.695868015289307, -1.68215012550354, -1.8455626964569092, 0.0890318900346756, 0.14726443347836968, -0.967089335012588, -1.9797897197442302
464886, 0.8428888916969299, -1.9002115726470947, 1.9823472499847412, -0.03192225471138954, 0.013091250322759151, 1.0001624822616577, -0.13396453857421875, 9362.0, 28835.0, 32767.0, 9362.0, 0.0, 7.695868015289307, -1.6821550130844116, -1.845564603805542, 0.08904553949832916, 0.16096430604531403, -0.9566665528098497, -1.9836846543775095
464896, 0.841869592666626, -1.8996201753616333, 1.9811288118362427, -0.029061224311590195, 0.013291771523654461, 1.0023058652877808, -0.06835174560546875, 9362.0, 28835.0, 32767.0, 9362.0, 0.0, 7.695868015289307, -1.682244062423706, -1.8455485105514526, 0.0890202522277832, 0.1392917816402858, -1.0110619200798112, -1.946564305799398
464906, 0.8419556021690369, -1.9005364179611206, 1.9816738367080688, -0.02882997691631317, 0.013356950134038925, 1.0030241012573242, -0.06835174560546875, 9362.0, 28835.0, 32767.0, 9362.0, 0.0, 7.695868015289307, -1.6821500062942505, -1.8455522060394287, 0.0890246257185936, 0.14973825278141903, -0.9691052648690857, -1.9860969283084704
464916, 0.8424544930458069, -1.9005038738250732, 1.9811500310897827, -0.030866418033838272, 0.013978322967886925, 1.001119613647461, -0.01914215087890625, 9362.0, 28835.0, 32767.0, 9362.0, 0.0, 7.695868015289307, -1.6821491718292236, -1.8454833030700684, 0.0889865830540657, 0.08521992126987246, -0.9728882736060598, -1.9691873008071865
464926, 0.8412846326828003, -1.9006060361862183, 1.9799714088439941, -0.030825883150100708, 0.013346372172236443, 1.0008316040039062, -0.01914215087890625, 9362.0, 28835.0, 32767.0, 9362.0, 0.0, 7.695868015289307, -1.682157039642334, -1.8455578088760376, 0.08905170112848282, 0.15218382158380384, -0.9633978155888201, -1.9721835199302644
464936, 0.8411499857902527, -1.9004045724868774, 1.9795047044754028, -0.029515748843550682, 0.012100032530725002, 1.0008212327957153, 0.0109405517578125, 9362.0, 28835.0, 32767.0, 9362.0, 0.0, 7.676033973693848, -1.6822670698165894, -1.8454700708389282, 0.08894374966621399, 0.06516083759407812, -1.0079256914557675, -1.9484438009944773
464946, 0.8399903774261475, -1.900084376335144, 1.9800350666046143, -0.030178938060998917, 0.012227874249219894, 1.0017215013504028, 0.0109405517578125, 9362.0, 28835.0, 32767.0, 9362.0, 0.0, 7.695868015289307, -1.6821554899215698, -1.8455560207366943, 0.0890626385807991, 0.16362423166744558, -0.9584568801252829, -1.9852984873226645
464956, 0.8393354415893555, -1.8996809720993042, 1.97965669631958, -0.02821316570043564, 0.014224912971258163, 1.000063180923462, -0.0027313232421875, 9362.0, 28835.0, 32767.0, 9362.0, 0.0, 7.695868015289307, -1.6818861961364746, -1.8454680442810059, 0.08897664397954941, 0.08883396382525906, -0.9199117387434512, -2.014268911845155
464966, 0.8392879366874695, -1.8996652364730835, 1.9790924787521362, -0.028839092701673508, 0.013029680587351322, 1.0026791095733643, -0.0027313232421875, 9362.0, 28835.0, 32767.0, 9362.0, 0.0, 7.695868015289307, -1.682159423828125, -1.845550298690796, 0.08904212713241577, 0.1570136792575326, -0.9648663238532151, -1.982509445588216
464976, 0.8405070900917053, -1.899645447731018, 1.978560209274292, -0.0299795214086771, 0.014805369079113007, 1.0011318922042847, -0.0902252197265625, 9362.0, 28835.0, 32767.0, 9362.0, 0.0, 7.695868015289307, -1.6821647882461548, -1.8455548286437988, 0.08902661502361298, 0.15683364070617445, -0.9579192174808782, -1.97674009893134
464986, 0.8395993113517761, -1.8996473550796509, 1.976812720298767, -0.0290914848446846, 0.015360735356807709, 1.0016391277313232, -0.0902252197265625, 9362.0, 28835.0, 32767.0, 9362.0, 0.0, 7.676033973693848, -1.6822434663772583, -1.8455513715744019, 0.08899890631437302, 0.1431905235702437, -1.0127085750223443, -1.94884560143403
464996, 0.8378866910934448, -1.8987690210342407, 1.9764217138290405, -0.028053462505340576, 0.013037744909524918, 1.0028557777404785, -0.11483001708984375, 9362.0, 28835.0, 32767.0, 9362.0, 0.0, 7.676033973693848, -1.6822587251663208, -1.8454811573028564, 0.0889296680688858, 0.06094842094833119, -1.0059388497617476, -1.9397267081529876
465006, 0.8367699384689331, -1.898463487625122, 1.9759734869003296, -0.02733580954372883, 0.012914985418319702, 1.0021523237228394, -0.11483001708984375, 9362.0, 28835.0, 32767.0, 9362.0, 0.0, 7.676033973693848, -1.6821566820144653, -1.8455568552017212, 0.08904584497213364, 0.15571504353910173, -0.9744099283074661, -1.9785373973937093
465016, 0.8367719054222107, -1.8983564376831055, 1.9749455451965332, -0.028303038328886032, 0.012614063918590546, 1.0000163316726685, -0.0956878662109375, 9362.0, 28835.0, 32767.0, 9362.0, 0.0, 7.695868015289307, -1.6821472644805908, -1.8455455303192139, 0.08901877701282501, 0.15186829337117747, -0.9603759288222875, -1.9761546393203855
465026, 0.8367521166801453, -1.8980745077133179, 1.9741594791412354, -0.02894631028175354, 0.01151247974485159, 0.999586820602417, -0.0956878662109375, 9362.0, 28835.0, 32767.0, 9362.0, 0.0, 7.695868015289307, -1.682152509689331, -1.8455561399459839, 0.08902435004711151, 0.15836560358750582, -0.9587366256679388, -1.9807041334345472
465036, 0.8366760611534119, -1.8998006582260132, 1.9725602865219116, -0.03101426362991333, 0.015080217272043228, 1.0011420249938965, -0.0847625732421875, 9362.0, 28835.0, 32767.0, 9362.0, 0.0, 7.695868015289307, -1.6821709871292114, -1.845472812652588, 0.08899591118097305, 0.08283629188603067, -0.9699429942959057, -1.9695967566583348
465046, 0.836275041103363, -1.9009222984313965, 1.9724023342132568, -0.03222260624170303, 0.01373482309281826, 1.003367304801941, -0.0847625732421875, 9362.0, 28835.0, 32767.0, 9362.0, 0.0, 7.695868015289307, -1.6821538209915161, -1.8455514907836914, 0.08904436975717545, 0.16346339434950152, -0.9579122383273386, -1.9786702531536842
465056, 0.8352804780006409, -1.9021624326705933, 1.971213936805725, -0.02969520166516304, 0.01476082019507885, 1.0026180744171143, -0.0847625732421875, 9362.0, 28835.0, 32767.0, 9362.0, 0.0, 7.676033973693848, -1.6818759441375732, -1.8454605340957642, 0.08898656070232391, 0.08721224401240882, -0.9303011549384337, -2.0144869814049273
465066, 0.8356302380561829, -1.9019227027893066, 1.970299482345581, -0.027621200308203697, 0.014056649059057236, 1.0026154518127441, -0.0847625732421875, 9362.0, 28835.0, 32767.0, 9362.0, 0.0, 7.695868015289307, -1.682144284248352, -1.8455517292022705, 0.08906710892915726, 0.15206927370080495, -0.9678122242139011, -1.9757189535688358
465076, 0.836021363735199, -1.9014341831207275, 1.9702774286270142, -0.02960868924856186, 0.01323707401752472, 1.002211093902588, -0.06288909912109375, 9362.0, 28835.0, 32767.0, 9362.0, 0.0, 7.695868015289307, -1.6821651458740234, -1.8455638885498047, 0.08903536945581436, 0.15439565778894207, -0.9590366880259751, -1.978013213334778
465086, 0.8361630439758301, -1.9014241695404053, 1.9683005809783936, -0.02958068437874317, 0.013192862272262573, 1.0017774105072021, -0.06288909912109375, 9362.0, 28835.0, 32767.0, 9362.0, 0.0, 7.695868015289307, -1.6823005676269531, -1.8454704284667969, 0.08891522139310837, 0.05769910599732513, -0.9886197774626169, -1.9347171936538492
465096, 0.8369944095611572, -1.9001009464263916, 1.9688520431518555, -0.03057238459587097, 0.013930834829807281, 0.9985320568084717, -0.08203125, 9362.0, 28835.0, 32767.0, 9362.0, 0.0, 7.676033973693848, -1.682166337966919, -1.8455686569213867, 0.08904601633548737, 0.1497077149790333, -0.9746341166698755, -1.9901826400106981
465106, 0.8369476795196533, -1.8984990119934082, 1.9681212902069092, -0.03145095333456993, 0.013936426490545273, 0.9992324709892273, -0.08203125, 9362.0, 28835.0, 32767.0, 9362.0, 0.0, 7.695868015289307, -1.6822599172592163, -1.8455291986465454, 0.08900108933448792, 0.1342629702752728, -1.0040445278791879, -1.951006047034956
465116, 0.8368543982505798, -1.8984441757202148, 1.968017578125, -0.02893003076314926, 0.013268700800836086, 1.0009713172912598, -0.0847625732421875, 9362.0, 28835.0, 32767.0, 9362.0, 0.0, 7.695868015289307, -1.6821645498275757, -1.8455591201782227, 0.08907638490200043, 0.15552363781161016, -0.9650691607492945, -1.9825836091664433
465126, 0.8382292985916138, -1.8983889818191528, 1.9679827690124512, -0.029499048367142677, 0.012332556769251823, 1.0014901161193848, -0.0847625732421875, 9362.0, 28835.0, 32767.0, 9362.0, 0.0, 7.676033973693848, -1.6821627616882324, -1.8455350399017334, 0.08908222615718842, 0.15699297222519387, -0.9762105395679725, -1.9882052914793888
465136, 0.8391327857971191, -1.8993221521377563, 1.966809630393982, -0.029884707182645798, 0.01426513958722353, 0.9980748891830444, -0.087493896484375, 9362.0, 28835.0, 32767.0, 9362.0, 0.0, 7.676033973693848, -1.6822963953018188, -1.845723271369934, 0.08879246562719345, 0.10912444490226862, -0.9595002205412584, -1.8413028043737736
465146, 0.8389399647712708, -1.8998726606369019, 1.9649635553359985, -0.031626708805561066, 0.014746804721653461, 0.9992300868034363, -0.087493896484375, 9362.0, 28835.0, 32767.0, 9362.0, 0.0, 7.695868015289307, -1.6821448802947998, -1.8455448150634766, 0.0890275090932846, 0.14952332040847807, -0.9777125989218689, -1.9818645379102853
465156, 0.8399055600166321, -1.897869348526001, 1.9647291898727417, -0.03239773213863373, 0.016462616622447968, 1.0007587671279907, -0.101165771484375, 9362.0, 28835.0, 32767.0, 9362.0, 0.0, 7.695868015289307, -1.6822586059570312, -1.845562219619751, 0.08899333328008652, 0.13453918226214714, -1.0139315893914898, -1.9535250726851754
465166, 0.838897705078125, -1.89812433719635, 1.964736819267273, -0.03132461756467819, 0.013673181645572186, 0.9993413686752319, -0.101165771484375, 9362.0, 28835.0, 32767.0, 9362.0, 0.0, 7.695868015289307, -1.6821640729904175, -1.8455657958984375, 0.0890524685382843, 0.15114102404949248, -0.9587897937783509, -1.979439387399863
465176, 0.8390084505081177, -1.897643804550171, 1.964302897453308, -0.02920752391219139, 0.014372400939464569, 1.0000886917114258, -0.15584564208984375, 9362.0, 28835.0, 32767.0, 9362.0, 0.0, 7.695868015289307, -1.6823124885559082, -1.8457058668136597, 0.08882167190313339, 0.100483890669924, -0.9764215685348177, -1.8502087803849547
465186, 0.8389521837234497, -1.899185061454773, 1.9640063047409058, -0.029863961040973663, 0.014814918860793114, 1.0016672611236572, -0.15584564208984375, 9362.0, 28835.0, 32767.0, 9362.0, 0.0, 7.695868015289307, -1.682151198387146, -1.8454731702804565, 0.08902264386415482, 0.08231623778887874, -0.9642374040116408, -1.9763611346487355
465196, 0.8389882445335388, -1.8997783660888672, 1.9635393619537354, -0.029154740273952484, 0.013810981065034866, 1.0012093782424927, -0.13944244384765625, 9362.0, 28835.0, 32767.0, 9362.0, 0.0, 7.676033973693848, -1.682264804840088, -1.8455578088760376, 0.08899088203907013, 0.13661532440994395, -0.9967521860157262, -1.9465096878012158
465206, 0.8379464149475098, -1.8997260332107544, 1.9629720449447632, -0.028996173292398453, 0.012949167750775814, 0.9993535280227661, -0.13944244384765625, 9362.0, 28835.0, 32767.0, 9362.0, 0.0, 7.676033973693848, -1.6821603775024414, -1.8455636501312256, 0.08903905004262924, 0.15683653622856136, -0.9502751467275061, -1.9649086859326674
465216, 0.8375234007835388, -1.9006651639938354, 1.9616202116012573, -0.0312051884829998, 0.011947838589549065, 1.0008137226104736, -0.13944244384765625, 9362.0, 28835.0, 32767.0, 9362.0, 0.0, 7.695868015289307, -1.6822216510772705, -1.8457510471343994, 0.0887865424156189, 0.12372783964999712, -0.9330042051073235, -1.8660733872630049
465226, 0.8381145596504211, -1.9015377759933472, 1.961500644683838, -0.030559932813048363, 0.012660964392125607, 1.0013477802276611, -0.13944244384765625, 9362.0, 28835.0, 32767.0, 9362.0, 0.0, 7.695868015289307, -1.6822583675384521, -1.8454734086990356, 0.08893238753080368, 0.06385231632857057, -1.0106068309085572, -1.948222633465425
465236, 0.8378894329071045, -1.8991103172302246, 1.9605878591537476, -0.02929651364684105, 0.012273832224309444, 1.000474214553833, -0.06288909912109375, 9362.0, 28835.0, 32767.0, 9362.0, 0.0, 7.695868015289307, -1.6822677850723267, -1.8455555438995361, 0.08898194879293442, 0.1412431518418004, -1.0188231381233948, -1.9505311289854064
465246, 0.8381583094596863, -1.8990306854248047, 1.960403561592102, -0.029165979474782944, 0.012149173766374588, 1.0028088092803955, -0.06288909912109375, 9362.0, 28835.0, 32767.0, 9362.0, 0.0, 7.695868015289307, -1.6822686195373535, -1.845556378364563, 0.08900625258684158, 0.1350247527472294, -1.00218380931733, -1.9511167937847471
465256, 0.8377306461334229, -1.8994218111038208, 1.9615367650985718, -0.030604476109147072, 0.013554535806179047, 1.0012991428375244, -0.08203125, 9362.0, 28835.0, 32767.0, 9362.0, 0.0, 7.695868015289307, -1.6821638345718384, -1.8455517292022705, 0.08904862403869629, 0.1527014457396949, -0.9620639893552152, -1.9779707685019428
465266, 0.8376436233520508, -1.898150086402893, 1.9615355730056763, -0.029706783592700958, 0.013490680605173111, 1.0009729862213135, -0.08203125, 9362.0, 28835.0, 32767.0, 9362.0, 0.0, 7.695868015289307, -1.682161808013916, -1.8455524444580078, 0.08902272582054138, 0.1600373546578944, -0.9662762264904927, -1.981618318214983
465276, 0.8392505645751953, -1.8981963396072388, 1.9618498086929321, -0.029316572472453117, 0.012564467266201973, 0.9995341300964355, -0.153106689453125, 9362.0, 28835.0, 32767.0, 9362.0, 0.0, 7.695868015289307, -1.6821554899215698, -1.8454838991165161, 0.08897082507610321, 0.08160500094649367, -0.9604622827742446, -1.971062975712999
465286, 0.8384267091751099, -1.8978525400161743, 1.961768388748169, -0.029743976891040802, 0.012204756028950214, 0.9992802143096924, -0.153106689453125, 9362.0, 28835.0, 32767.0, 9362.0, 0.0, 7.695868015289307, -1.6821590662002563, -1.8454903364181519, 0.08900434523820877, 0.09255842476661567, -0.9525924067829692, -1.98090036760925
465296, 0.8386516571044922, -1.8980072736740112, 1.9610486030578613, -0.030656717717647552, 0.014797122217714787, 1.0005033016204834, -0.1640472412109375, 9362.0, 28835.0, 32767.0, 9362.0, 0.0, 7.695868015289307, -1.6821767091751099, -1.845558762550354, 0.08902915567159653, 0.1607357933318904, -0.963842918922154, -1.9753577790454107
465306, 0.8392427563667297, -1.898520588874817, 1.9601173400878906, -0.03245995566248894, 0.015480399131774902, 1.003026008605957, -0.1640472412109375, 9362.0, 28835.0, 32767.0, 9362.0, 0.0, 7.676033973693848, -1.6821539402008057, -1.845556378364563, 0.08903469145298004, 0.15508165904259724, -0.9629063850991599, -1.98020170326069
465316, 0.8393238186836243, -1.9003671407699585, 1.9603619575500488, -0.03161165118217468, 0.015301378443837166, 1.0020500421524048, -0.11209869384765625, 9362.0, 28835.0, 32767.0, 9362.0, 0.0, 7.695868015289307, -1.6821662187576294, -1.8455567359924316, 0.08904160559177399, 0.15826871563055378, -0.9716331025454963, -1.9845584974102988
465326, 0.8391498923301697, -1.9006150960922241, 1.9594708681106567, -0.030325844883918762, 0.014290239661931992, 1.0002073049545288, -0.11209869384765625, 9362.0, 28835.0, 32767.0, 9362.0, 0.0, 7.695868015289307, -1.6821656227111816, -1.8455500602722168, 0.089046910405159, 0.1492850825800453, -0.9611496326796214, -1.985442570932825
465336, 0.8390965461730957, -1.8996871709823608, 1.9586135149002075, -0.031459420919418335, 0.01494995690882206, 0.9993776082992554, -0.0765533447265625, 9362.0, 28835.0, 32767.0, 9362.0, 0.0, 7.695868015289307, -1.6821589469909668, -1.8455684185028076, 0.08903392404317856, 0.14864436214323112, -0.963880021696383, -1.9779442061706893
465346, 0.8390032649040222, -1.8997445106506348, 1.9584816694259644, -0.03147174417972565, 0.013990595936775208, 1.0008821487426758, -0.0765533447265625, 9362.0, 28835.0, 32767.0, 9362.0, 0.0, 7.695868015289307, -1.6821550130844116, -1.8455628156661987, 0.08903567492961884, 0.1514894850560811, -0.9609233162543092, -1.9783328779136866
465356, 0.8384555578231812, -1.8979737758636475, 1.9576715230941772, -0.030083339661359787, 0.012102426029741764, 0.9998170733451843, -0.0956878662109375, 9362.0, 28835.0, 32767.0, 9362.0, 0.0, 7.695868015289307, -1.6822686195373535, -1.8455435037612915, 0.08897166699171066, 0.1369546966698999, -1.0074379944889529, -1.9523084113304805
465366, 0.8383603096008301, -1.898758888244629, 1.956395149230957, -0.029132800176739693, 0.014129511080682278, 1.000087857246399, -0.0956878662109375, 9362.0, 28835.0, 32767.0, 9362.0, 0.0, 7.695868015289307, -1.6821588277816772, -1.8455626964569092, 0.08905508369207382, 0.15761931351517347, -0.9560022385602736, -1.9725966156692845
465376, 0.8386732339859009, -1.899526834487915, 1.9561030864715576, -0.031294576823711395, 0.015391187742352486, 1.0019463300704956, -0.1175689697265625, 9362.0, 28835.0, 32767.0, 9362.0, 0.0, 7.695868015289307, -1.6822700500488281, -1.8455606698989868, 0.08898840099573135, 0.14605966048522695, -0.996952789289054, -1.9444587031542577
465386, 0.8381701111793518, -1.8991166353225708, 1.9554446935653687, -0.029475297778844833, 0.014496822841465473, 1.0004695653915405, -0.1175689697265625, 9362.0, 28835.0, 32767.0, 9362.0, 0.0, 7.695868015289307, -1.6821796894073486, -1.8455554246902466, 0.08903400599956512, 0.15673127379209553, -0.9530475543247974, -1.9840852189301825
465396, 0.8378576040267944, -1.8982919454574585, 1.954378604888916, -0.028150323778390884, 0.01283592451363802, 1.0005135536193848, -0.13396453857421875, 9362.0, 28835.0, 32767.0, 9362.0, 0.0, 7.695868015289307, -1.682271957397461, -1.8455498218536377, 0.088994100689888, 0.14185269405741432, -1.0131265210371225, -1.9524211248936447
465406, 0.8378077745437622, -1.89836585521698, 1.9536852836608887, -0.029750199988484383, 0.012635567225515842, 1.0020601749420166, -0.13396453857421875, 9362.0, 28835.0, 32767.0, 9362.0, 0.0, 7.695868015289307, -1.681884765625, -1.845553994178772, 0.08905920386314392, 0.1599161363349474, -0.9197591478028926, -2.0087194203955043
465416, 0.8387799859046936, -1.8988271951675415, 1.9540519714355469, -0.031752653419971466, 0.012830548919737339, 1.0012873411178589, -0.15036773681640625, 9362.0, 28835.0, 32767.0, 9362.0, 0.0, 7.695868015289307, -1.6822667121887207, -1.8455588817596436, 0.08897079527378082, 0.14614623334255786, -0.995624331409573, -1.9549863653974338
465426, 0.8395162224769592, -1.8981658220291138, 1.9526649713516235, -0.030878912657499313, 0.013496934436261654, 0.999992311000824, -0.15036773681640625, 9362.0, 28835.0, 32767.0, 9362.0, 0.0, 7.695868015289307, -1.6822835206985474, -1.845551609992981, 0.08899419009685516, 0.13825149452556576, -1.0085064836402466, -1.948788288136106
465436, 0.838123619556427, -1.9003572463989258, 1.9504997730255127, -0.029877856373786926, 0.014536920003592968, 1.0006252527236938, -0.180450439453125, 9362.0, 28835.0, 32767.0, 9362.0, 0.0, 7.695868015289307, -1.682273268699646, -1.8455605506896973, 0.08897162973880768, 0.13780350724395599, -1.0035412870388143, -1.9515088811814114
465446, 0.8386515378952026, -1.9015215635299683, 1.948634386062622, -0.029342127963900566, 0.015000325627624989, 1.002243995666504, -0.180450439453125, 9362.0, 28835.0, 32767.0, 9362.0, 0.0, 7.695868015289307, -1.6823159456253052, -1.8456652164459229, 0.08872511237859726, 0.035469311596420326, -0.9769407342903378, -1.8385626906299646
465456, 0.8397953510284424, -1.9014121294021606, 1.948677659034729, -0.029294908046722412, 0.014208738692104816, 1.0021793842315674, -0.16130828857421875, 9362.0, 28835.0, 32767.0, 9362.0, 0.0, 7.695868015289307, -1.6822562217712402, -1.8455573320388794, 0.08898235112428665, 0.14034007357522907, -1.0107755747338842, -1.9441862473401703
465466, 0.8402590155601501, -1.900988221168518, 1.948553204536438, -0.029692603275179863, 0.015696300193667412, 1.0031839609146118, -0.16130828857421875, 9362.0, 28835.0, 32767.0, 9362.0, 0.0, 7.676033973693848, -1.6821742057800293, -1.845558524131775, 0.08901332318782806, 0.16765462531834308, -0.9557036170479591, -1.9830320204649332
465476, 0.8396880030632019, -1.900659441947937, 1.9478027820587158, -0.02941228821873665, 0.014222151599824429, 1.0019274950027466, -0.2023162841796875, 9362.0, 28835.0, 32767.0, 9362.0, 0.0, 7.695868015289307, -1.6822868585586548, -1.8455582857131958, 0.08894854038953781, 0.15024886438483123, -1.0136426796038052, -1.9697193378251732
465486, 0.8404746651649475, -1.9001423120498657, 1.9481616020202637, -0.029108678922057152, 0.014690198004245758, 1.00260591506958, -0.2023162841796875, 9362.0, 28835.0, 32767.0, 9362.0, 0.0, 7.695868015289307, -1.6822667121887207, -1.8454761505126953, 0.0889529138803482, 0.07368894401788412, -1.0163162199464182, -1.9450401315945012
465496, 0.8408023118972778, -1.8996950387954712, 1.948012113571167, -0.029609132558107376, 0.012343011796474457, 1.002996802330017, -0.2023162841796875, 9362.0, 28835.0, 32767.0, 9362.0, 0.0, 7.676033973693848, -1.6822623014450073, -1.8455654382705688, 0.08900086581707001, 0.14449894054244516, -0.9970122574125071, -1.9509635510790706
465506, 0.8395960330963135, -1.9006671905517578, 1.9458646774291992, -0.031136751174926758, 0.013352404348552227, 1.0027554035186768, -0.2023162841796875, 9362.0, 28835.0, 32767.0, 9362.0, 0.0, 7.676033973693848, -1.6823043823242188, -1.8457435369491577, 0.08877365291118622, 0.10781664672031309, -0.9639627100767996, -1.8505177332979563
465516, 0.8403567671775818, -1.9013274908065796, 1.9446873664855957, -0.03127425163984299, 0.016019312664866447, 0.9997910857200623, -0.1886444091796875, 9362.0, 28835.0, 32767.0, 9362.0, 0.0, 7.695868015289307, -1.6820423603057861, -1.8455649614334106, 0.0890192985534668, 0.1368836899365088, -0.975498724044428, -1.959315163664899
465526, 0.8403695821762085, -1.9018182754516602, 1.9435343742370605, -0.029867488890886307, 0.014217490330338478, 1.0013502836227417, -0.1886444091796875, 9362.0, 28835.0, 32767.0, 9362.0, 0.0, 7.695868015289307, -1.682171106338501, -1.8454780578613281, 0.08897478878498077, 0.0798984372655814, -0.9635202192355337, -1.9715274124281008
465536, 0.8413510918617249, -1.9013144969940186, 1.9421427249908447, -0.029986971989274025, 0.01451437920331955, 1.0013893842697144, -0.23513031005859375, 9362.0, 28835.0, 32767.0, 9362.0, 0.0, 7.695868015289307, -1.682167887687683, -1.84555983543396, 0.08901435881853104, 0.14803113380853655, -0.9565687019547795, -1.9811928786558162
465546, 0.841113805770874, -1.9013481140136719, 1.9406373500823975, -0.03114829584956169, 0.012713586911559105, 1.0001921653747559, -0.23513031005859375, 9362.0, 28835.0, 32767.0, 9362.0, 0.0, 7.695868015289307, -1.6821551322937012, -1.8454818725585938, 0.08895371854305267, 0.08983608726740555, -0.9554163663261193, -1.9675428427462063
465556, 0.8406182527542114, -1.9018735885620117, 1.9394415616989136, -0.029636461287736893, 0.013725011609494686, 1.0006837844848633, -0.15857696533203125, 9362.0, 28835.0, 32767.0, 9362.0, 0.0, 7.695868015289307, -1.6819449663162231, -1.8455324172973633, 0.08914809674024582, 0.05703350553474536, -0.9994794640829525, -1.9379312657031633
465566, 0.8411784768104553, -1.9015042781829834, 1.9394898414611816, -0.02729153446853161, 0.014132115989923477, 0.9988932609558105, -0.15857696533203125, 9362.0, 28835.0, 32767.0, 9362.0, 0.0, 7.695868015289307, -1.682267427444458, -1.8455538749694824, 0.08900077641010284, 0.1406043723902336, -1.0040889656847014, -1.9458716809403465
465576, 0.8424331545829773, -1.900476098060608, 1.938105583190918, -0.02835461124777794, 0.012502701953053474, 1.0019668340682983, -0.1777191162109375, 9362.0, 28835.0, 32767.0, 9362.0, 0.0, 7.676033973693848, -1.6821553707122803, -1.8455641269683838, 0.08901862800121307, 0.1469845328904567, -0.9643061957742134, -1.9724849088317589
465586, 0.8439429998397827, -1.9004350900650024, 1.9391415119171143, -0.030111011117696762, 0.01299828290939331, 1.0009726285934448, -0.1777191162109375, 9362.0, 28835.0, 32767.0, 9362.0, 0.0, 7.695868015289307, -1.6821448802947998, -1.8455486297607422, 0.08903675526380539, 0.15094380887665276, -0.9643688198836742, -1.985355223654937
465596, 0.8431764245033264, -1.9021540880203247, 1.9378750324249268, -0.02963981218636036, 0.014025558717548847, 0.9995632171630859, -0.14763641357421875, 9362.0, 28835.0, 32767.0, 9362.0, 0.0, 7.695868015289307, -1.6822463274002075, -1.8454781770706177, 0.08896691352128983, 0.0636885228415676, -1.0262310800308967, -1.9392536714387638
465606, 0.841668426990509, -1.9024624824523926, 1.9381266832351685, -0.02988552674651146, 0.01197426300495863, 1.0006216764450073, -0.14763641357421875, 9362.0, 28835.0, 32767.0, 9362.0, 0.0, 7.695868015289307, -1.682260274887085, -1.8455594778060913, 0.08897813409566879, 0.14030720264186045, -1.014018498024484, -1.941871186099
465616, 0.8407019972801208, -1.903247356414795, 1.9374812841415405, -0.030149569734930992, 0.010018734261393547, 0.9998460412025452, -0.17224884033203125, 9362.0, 28835.0, 32767.0, 9362.0, 0.0, 7.695868015289307, -1.6821446418762207, -1.8455616235733032, 0.08902250975370407, 0.1490317710050263, -0.9678695652189901, -1.981696922175057
465626, 0.8417288661003113, -1.902748465538025, 1.9382635354995728, -0.030090685933828354, 0.012036355212330818, 1.0007729530334473, -0.17224884033203125, 9362.0, 28835.0, 32767.0, 9362.0, 0.0, 7.695868015289307, -1.682152271270752, -1.845479130744934, 0.08898959308862686, 0.08651775094343817, -0.9752447680602927, -1.9699758260271123
465636, 0.8409150838851929, -1.9056410789489746, 1.9369536638259888, -0.02977660298347473, 0.013942619785666466, 1.0021193027496338, -0.1995849609375, 9362.0, 28835.0, 32767.0, 9362.0, 0.0, 7.695868015289307, -1.682157039642334, -1.8455495834350586, 0.0890485867857933, 0.15642858657218103, -0.9642292758254598, -1.9814133401294245
465646, 0.8403475284576416, -1.9039939641952515, 1.9363237619400024, -0.030527237802743912, 0.014420545659959316, 1.0039395093917847, -0.1995849609375, 9362.0, 28835.0, 32767.0, 9362.0, 0.0, 7.695868015289307, -1.6822618246078491, -1.8455514907836914, 0.08898840099573135, 0.1398429317908394, -1.0092253601206949, -1.9544050807451168
465656, 0.8396499156951904, -1.9043973684310913, 1.9354621171951294, -0.03174594044685364, 0.011610360816121101, 1.0029990673065186, -0.1777191162109375, 9362.0, 28835.0, 32767.0, 9362.0, 0.0, 7.695868015289307, -1.6822941303253174, -1.845577359199524, 0.0889618769288063, 0.14311306539388682, -1.0019585945817937, -1.9449927928193451
465666, 0.8405705690383911, -1.9044573307037354, 1.9350513219833374, -0.03145931661128998, 0.01330783311277628, 1.0017906427383423, -0.1777191162109375, 9362.0, 28835.0, 32767.0, 9362.0, 0.0, 7.695868015289307, -1.6821643114089966, -1.845485806465149, 0.0889701172709465, 0.08603136607021905, -0.9643025436608923, -1.9689896804397287
465676, 0.8399361371994019, -1.9039403200149536, 1.9344444274902344, -0.030828282237052917, 0.014101264998316765, 1.001836895942688, -0.17224884033203125, 9362.0, 28835.0, 32767.0, 9362.0, 0.0, 7.695868015289307, -1.6822623014450073, -1.8455519676208496, 0.08898976445198059, 0.13858737688346576, -1.0113322613955233, -1.9479144163101898
465686, 0.8419337272644043, -1.9035249948501587, 1.9345799684524536, -0.030925428494811058, 0.012530462816357613, 1.0015671253204346, -0.17224884033203125, 9362.0, 28835.0, 32767.0, 9362.0, 0.0, 7.695868015289307, -1.682273268699646, -1.8455510139465332, 0.08899683505296707, 0.14150295208164593, -1.0009900272622474, -1.945546498331811
465696, 0.8425061106681824, -1.9049818515777588, 1.935209035873413, -0.030679747462272644, 0.014234901405870914, 0.9999039173126221, -0.12303924560546875, 9362.0, 28835.0, 32767.0, 9362.0, 0.0, 7.695868015289307, -1.682151198387146, -1.8455665111541748, 0.08906354010105133, 0.15208279206490183, -0.9730112916055873, -1.9658427360058608
465706, 0.8433710336685181, -1.9047999382019043, 1.934896469116211, -0.030613994225859642, 0.014110106974840164, 0.9992308616638184, -0.12303924560546875, 9362.0, 28835.0, 32767.0, 9362.0, 0.0, 7.695868015289307, -1.682268738746643, -1.8455601930618286, 0.08898106962442398, 0.1423017555420589, -1.0052324091668652, -1.9437370986240345
465716, 0.8432527184486389, -1.9028829336166382, 1.9343210458755493, -0.029816653579473495, 0.012284282594919205, 1.0021755695343018, -0.0847625732421875, 9362.0, 28835.0, 32767.0, 9362.0, 0.0, 7.695868015289307, -1.6821576356887817, -1.8455638885498047, 0.08904261887073517, 0.1496051340802073, -0.9653432939353195, -1.9806282189840325
465726, 0.8429438471794128, -1.9023774862289429, 1.934159755706787, -0.03130149096250534, 0.013076483272016048, 1.0036003589630127, -0.0847625732421875, 9362.0, 28835.0, 32767.0, 9362.0, 0.0, 7.695868015289307, -1.682280421257019, -1.8455456495285034, 0.08898468315601349, 0.14112655458216647, -0.9995618078399957, -1.9563536938771207
465736, 0.8420987129211426, -1.9005448818206787, 1.9335888624191284, -0.028667405247688293, 0.01367170549929142, 1.0019726753234863, -0.13671112060546875, 9362.0, 28835.0, 32767.0, 9362.0, 0.0, 7.695868015289307, -1.6821602582931519, -1.8454837799072266, 0.08898117393255234, 0.0868187151832715, -0.9685294842967096, -1.970200719317433
465746, 0.842693567276001, -1.900138258934021, 1.933679223060608, -0.030219679698348045, 0.013568923808634281, 1.0015652179718018, -0.13671112060546875, 9362.0, 28835.0, 32767.0, 9362.0, 0.0, 7.695868015289307, -1.6821690797805786, -1.845562219619751, 0.08905564993619919, 0.15170298759663922, -0.9608330174508808, -1.9725246917213404
465756, 0.8418276309967041, -1.9004076719284058, 1.9313257932662964, -0.03198421001434326, 0.014411801472306252, 1.001065969467163, -0.1640472412109375, 9362.0, 28835.0, 32767.0, 9362.0, 0.0, 7.695868015289307, -1.682159423828125, -1.8455578088760376, 0.08905216306447983, 0.15573116469047507, -0.9574064960721955, -1.9763476205852524
465766, 0.8418573141098022, -1.8999285697937012, 1.9312553405761719, -0.03260277956724167, 0.01299834344536066, 1.0012598037719727, -0.1640472412109375, 9362.0, 28835.0, 32767.0, 9362.0, 0.0, 7.695868015289307, -1.6822704076766968, -1.845471978187561, 0.08892735093832016, 0.060159369312294875, -1.017571630360834, -1.9297661837878854
465776, 0.8421036601066589, -1.899490475654602, 1.930949091911316, -0.031505145132541656, 0.01196395792067051, 1.0013177394866943, -0.1175689697265625, 9362.0, 28835.0, 32767.0, 9362.0, 0.0, 7.695868015289307, -1.6821695566177368, -1.8455579280853271, 0.08903470635414124, 0.15823314782640954, -0.9664641246472456, -1.9834439371947465
465786, 0.8421585559844971, -1.898285150527954, 1.9311848878860474, -0.030223676934838295, 0.012141725048422813, 1.0000817775726318, -0.1175689697265625, 9362.0, 28835.0, 32767.0, 9362.0, 0.0, 7.695868015289307, -1.6822819709777832, -1.8455560207366943, 0.0889609307050705, 0.14288066185110457, -1.0121310226249989, -1.9457878962421895
465796, 0.842488706111908, -1.8977986574172974, 1.9301331043243408, -0.029504865407943726, 0.01459645014256239, 1.0004308223724365, -0.10662841796875, 9362.0, 28835.0, 32767.0, 9362.0, 0.0, 7.695868015289307, -1.6822832822799683, -1.8455663919448853, 0.08895992487668991, 0.1425060008497997, -1.0110711753678743, -1.9470775890162533
465806, 0.8417755365371704, -1.897729754447937, 1.9305044412612915, -0.029267610982060432, 0.013523107394576073, 1.00065016746521, -0.10662841796875, 9362.0, 28835.0, 32767.0, 9362.0, 0.0, 7.695868015289307, -1.6821709871292114, -1.8454866409301758, 0.0889805257320404, 0.0856021436861829, -0.9774824971960072, -1.9724877377620536
465816, 0.8404467701911926, -1.8979707956314087, 1.9310425519943237, -0.03177768737077713, 0.013173708692193031, 1.0006593465805054, -0.13123321533203125, 9362.0, 28835.0, 32767.0, 9362.0, 0.0, 7.695868015289307, -1.6822656393051147, -1.8455634117126465, 0.08898365497589111, 0.14139667752281906, -1.0187517360292873, -1.941404291616553
465826, 0.8409489393234253, -1.8969241380691528, 1.9300142526626587, -0.03096727840602398, 0.014345359988510609, 0.9996473789215088, -0.13123321533203125, 9362.0, 28835.0, 32767.0, 9362.0, 0.0, 7.695868015289307, -1.682152509689331, -1.8455679416656494, 0.08906429260969162, 0.156133865770341, -0.9723024195920971, -1.9796173495451395
465836, 0.8403210043907166, -1.8965095281600952, 1.9275974035263062, -0.031343065202236176, 0.012698585167527199, 1.001312017440796, -0.180450439453125, 9362.0, 28835.0, 32767.0, 9362.0, 0.0, 7.676033973693848, -1.682267665863037, -1.8454903364181519, 0.08894189447164536, 0.06101194546281024, -1.0223034838670344, -1.933412668923577
465846, 0.8394443392753601, -1.8970860242843628, 1.9268556833267212, -0.03207624703645706, 0.011195739731192589, 1.0002992153167725, -0.180450439453125, 9362.0, 28835.0, 32767.0, 9362.0, 0.0, 7.695868015289307, -1.6822818517684937, -1.8455642461776733, 0.08897525072097778, 0.14023515334777478, -1.000571664114318, -1.9454186945178504
