timeTick, roll, pitch, yaw, accX, accY, accZ, baro, m1, m2, m3, m4, thrust, vbat, otX0, otY0, otZ0, otRoll0, otPitch0, otYaw0
244802, -0.3318417966365814, -1.309247374534607, 2.563004970550537, 0, 0, 0, 0, 0, 0, 0, 0, 0, 0, -0.31464070081710815, -0.4048926830291748, 0.0612507164478302, -0.009539869336034667, 0.3241371790041967, 0.8070193338264972
244812, -0.3314588963985443, -1.3112953901290894, 2.56245493888855, -0.02391950599849224, -0.005783454980701208, 1.0014241933822632, 0.18590545654296875, 9362.0, 28835.0, 32767.0, 9362.0, 0.0, 7.973554611206055, -0.3145705461502075, -0.40496110916137695, 0.06125286966562271, -0.011573485283101951, 0.33686458921249596, 0.8807698719246831
244822, -0.3337208330631256, -1.3111273050308228, 2.560245990753174, -0.02075638249516487, -0.007264785002917051, 1.0012271404266357, 0.18590545654296875, 9362.0, 28835.0, 32767.0, 9362.0, 0.0, 7.973554611206055, -0.31446272134780884, -0.404990553855896, 0.06142314150929451, 0.03415260004261069, 0.22305301126183963, 0.8740007680506165
244832, -0.3330502212047577, -1.3124390840530396, 2.5591492652893066, -0.021028833463788033, -0.006474084220826626, 1.0009815692901611, 0.1421661376953125, 9362.0, 28835.0, 32767.0, 9362.0, 0.0, 7.973554611206055, -0.3136129379272461, -0.4061576724052429, 0.05960489809513092, 0.28562698328108715, -0.48114400149270864, 0.37487108856408685
244842, -0.3325590491294861, -1.313490867614746, 2.5577964782714844, -0.02401132322847843, -0.00664628017693758, 0.9991421103477478, 0.1421661376953125, 9362.0, 28835.0, 32767.0, 9362.0, 0.0, 7.973554611206055, -0.31450262665748596, -0.40493911504745483, 0.061373405158519745, 0.057255920971671835, 0.22457637582269285, 0.8107391611577256
244852, -0.33158451318740845, -1.313283085823059, 2.5593855381011963, -0.020678605884313583, -0.0041251531802117825, 0.9997415542602539, 0.1722412109375, 9362.0, 28835.0, 32767.0, 9362.0, 0.0, 7.973554611206055, -0.3135205805301666, -0.4062330722808838, 0.05959097295999527, 0.2814395001267706, -0.5132087532300602, 0.4445219258772093
244862, -0.3320346474647522, -1.3139848709106445, 2.5600242614746094, -0.022051863372325897, -0.005879411473870277, 1.0008766651153564, 0.1722412109375, 9362.0, 28835.0, 32767.0, 9362.0, 0.0, 7.973554611206055, -0.3142525553703308, -0.40457096695899963, 0.06039024516940117, 0.09654928085691244, 0.2802468457057046, 1.3166953666503913
244872, -0.33254343271255493, -1.3152586221694946, 2.560903787612915, -0.02179749310016632, -0.007353601045906544, 1.0004544258117676, 0.205047607421875, 9362.0, 28835.0, 32767.0, 9362.0, 0.0, 7.973554611206055, -0.3140488564968109, -0.4049485921859741, 0.06090325117111206, 0.18170310330331205, 0.4442841213838449, 1.082015061529809
244882, -0.3333449065685272, -1.314983606338501, 2.5621049404144287, -0.019598502665758133, -0.007045426871627569, 1.0000849962234497, 0.205047607421875, 9362.0, 28835.0, 32767.0, 9362.0, 0.0, 7.973554611206055, -0.3141772747039795, -0.40584906935691833, 0.06005632504820824, -0.04781588893416274, 0.1984519148593904, 0.5125014074631378
244892, -0.33236682415008545, -1.3162437677383423, 2.5632379055023193, -0.02076917327940464, -0.005137037020176649, 1.0002446174621582, 0.1448974609375, 9362.0, 28835.0, 32767.0, 9362.0, 0.0, 7.973554611206055, -0.31451502442359924, -0.4049360454082489, 0.06137854605913162, 0.05430970183772613, 0.2284238824858562, 0.8113867800233686
244902, -0.332410991191864, -1.3162548542022705, 2.562894344329834, -0.022214055061340332, -0.0048368582502007484, 1.0021648406982422, 0.1448974609375, 9362.0, 28835.0, 32767.0, 9362.0, 0.0, 7.973554611206055, -0.3145209848880768, -0.40493282675743103, 0.061383284628391266, 0.06001136094634434, 0.22212546714598602, 0.8112378147366774
244912, -0.3317580223083496, -1.3151289224624634, 2.56304669380188, -0.022556288167834282, -0.004975210875272751, 1.0021426677703857, 0.19957733154296875, 9362.0, 28835.0, 32767.0, 9362.0, 0.0, 7.973554611206055, -0.3145241141319275, -0.4049398601055145, 0.061410751193761826, 0.05709678008158309, 0.22280585885317805, 0.8053619671111241
244922, -0.3318915069103241, -1.3159301280975342, 2.5618505477905273, -0.023444240912795067, -0.006499068345874548, 1.0018296241760254, 0.19957733154296875, 9362.0, 28835.0, 32767.0, 9362.0, 0.0, 7.973554611206055, -0.3144505023956299, -0.40482884645462036, 0.06151449307799339, 0.06921678674356985, 0.22584159993837716, 0.8452788557203931
244932, -0.3309948146343231, -1.3137741088867188, 2.5616490840911865, -0.020955422893166542, -0.004781703464686871, 1.0019381046295166, 0.25972747802734375, 9362.0, 28835.0, 32767.0, 9362.0, 0.0, 7.973554611206055, -0.31446170806884766, -0.4049864411354065, 0.06141001358628273, 0.04200506294508229, 0.23213220862010076, 0.8720975339044644
244942, -0.3312675356864929, -1.3133710622787476, 2.5627756118774414, -0.02117711305618286, -0.0047519332729279995, 1.0018575191497803, 0.25972747802734375, 9362.0, 28835.0, 32767.0, 9362.0, 0.0, 7.973554611206055, -0.3145460784435272, -0.40484482049942017, 0.061481259763240814, 0.08133753336624897, 0.21062216415921853, 0.8137972995299495
244952, -0.3316071629524231, -1.312190294265747, 2.562901020050049, -0.020753737539052963, -0.005495660938322544, 1.0016266107559204, 0.2405853271484375, 9362.0, 28835.0, 32767.0, 9362.0, 0.0, 7.973554611206055, -0.3145040273666382, -0.40493905544281006, 0.06136980652809143, 0.059606455473072334, 0.22869097684059625, 0.8066936913806142
244962, -0.3321477770805359, -1.3115687370300293, 2.563570976257324, -0.017415614798665047, -0.004784127697348595, 0.999642014503479, 0.2405853271484375, 9362.0, 28835.0, 32767.0, 9362.0, 0.0, 7.973554611206055, -0.31458523869514465, -0.40461671352386475, 0.06169990822672844, 0.21587015845662946, 0.14080563175363636, 0.731475938972005
244972, -0.33279094099998474, -1.3121399879455566, 2.5643715858459473, -0.022587724030017853, -0.005742891691625118, 1.0004546642303467, 0.2351226806640625, 9362.0, 28835.0, 32767.0, 9362.0, 0.0, 7.973554611206055, -0.3144875466823578, -0.4048755466938019, 0.06150582805275917, 0.07685727065803181, 0.21441081959238772, 0.8747180321885599
244982, -0.33332279324531555, -1.3111023902893066, 2.5651376247406006, -0.023777667433023453, -0.005745057947933674, 1.0012903213500977, 0.2351226806640625, 9362.0, 28835.0, 32767.0, 9362.0, 0.0, 7.973554611206055, -0.31451714038848877, -0.40492725372314453, 0.06138940155506134, 0.06163526055738983, 0.21703716801451378, 0.8164370379925152
244992, -0.3329019248485565, -1.3120354413986206, 2.5643768310546875, -0.021885545924305916, -0.005609100218862295, 1.0019476413726807, 0.20778656005859375, 9362.0, 28835.0, 32767.0, 9362.0, 0.0, 7.973554611206055, -0.31444698572158813, -0.4050022065639496, 0.06138255447149277, 0.04486008207330736, 0.23372474472810723, 0.8822892226906868
245002, -0.3320882320404053, -1.3129308223724365, 2.563760280609131, -0.022773222997784615, -0.007234437391161919, 1.002885341644287, 0.20778656005859375, 9362.0, 28835.0, 32767.0, 9362.0, 0.0, 7.973554611206055, -0.3145107924938202, -0.40492701530456543, 0.061379823833703995, 0.05906202267986864, 0.2220194830372293, 0.8078014478905944
245012, -0.33267372846603394, -1.3142567873001099, 2.562572717666626, -0.02261194959282875, -0.007832659408450127, 1.001056432723999, 0.1339569091796875, 9362.0, 28835.0, 32767.0, 9362.0, 0.0, 7.973554611206055, -0.31463396549224854, -0.404611200094223, 0.06092912703752518, -0.0439251013474572, 0.07785010276327853, 1.1434142835704968
245022, -0.3342985212802887, -1.3150166273117065, 2.560084819793701, -0.022015132009983063, -0.004649748094379902, 1.0003697872161865, 0.1339569091796875, 9362.0, 28835.0, 32767.0, 9362.0, 0.0, 7.973554611206055, -0.31465062499046326, -0.40479984879493713, 0.06137406453490257, 0.022083725374660263, 0.30595445383920605, 0.8065553342701219
245032, -0.33434218168258667, -1.3152300119400024, 2.5581088066101074, -0.020413141697645187, -0.005618236493319273, 1.0006721019744873, 0.18044281005859375, 9362.0, 28835.0, 32767.0, 9362.0, 0.0, 7.973554611206055, -0.3145676851272583, -0.4049032926559448, 0.061640236526727676, 0.09095417737458278, 0.1974475257649715, 0.9057773748803551
245042, -0.33385834097862244, -1.314924716949463, 2.556696891784668, -0.019635779783129692, -0.004480042494833469, 0.9999414682388306, 0.18044281005859375, 9362.0, 28835.0, 32767.0, 9362.0, 0.0, 7.973554611206055, -0.314511239528656, -0.4049389064311981, 0.06138990446925163, 0.05729538140954043, 0.21934141021043274, 0.8100781250855004
245052, -0.3342936635017395, -1.3154429197311401, 2.554753303527832, -0.020366281270980835, -0.005138426087796688, 1.002076506614685, 0.16677093505859375, 9362.0, 28835.0, 32767.0, 9362.0, 0.0, 7.973554611206055, -0.3146325647830963, -0.40481045842170715, 0.06135733053088188, 0.01991591967346979, 0.3099174611426463, 0.8049058590851813
245062, -0.33303216099739075, -1.316580891609192, 2.554560422897339, -0.019035140052437782, -0.0047726863995194435, 1.0012120008468628, 0.16677093505859375, 9362.0, 28835.0, 32767.0, 9362.0, 0.0, 7.973554611206055, -0.31451529264450073, -0.40493932366371155, 0.0613725520670414, 0.05789945780618132, 0.22281734050679347, 0.8020293136018568
245072, -0.33308425545692444, -1.317046046257019, 2.554168939590454, -0.020605269819498062, -0.006050710566341877, 1.0007158517837524, 0.1230316162109375, 9362.0, 28835.0, 32767.0, 9362.0, 0.0, 7.973554611206055, -0.3142551779747009, -0.4057924747467041, 0.060047924518585205, -0.021638782723889343, 0.19654355274289514, 0.4621382096342515
245082, -0.33289283514022827, -1.3184223175048828, 2.5534393787384033, -0.021734364330768585, -0.005381653551012278, 1.0011022090911865, 0.1230316162109375, 9362.0, 28835.0, 32767.0, 9362.0, 0.0, 7.973554611206055, -0.31456175446510315, -0.40490779280662537, 0.06162988767027855, 0.08556380255100728, 0.19688366107212119, 0.9204845389980172
245092, -0.33250486850738525, -1.320353388786316, 2.5537898540496826, -0.020818358287215233, -0.005371907725930214, 1.0001620054244995, 0.125762939453125, 9362.0, 28835.0, 32767.0, 9362.0, 0.0, 7.973554611206055, -0.3145202100276947, -0.40493953227996826, 0.061351001262664795, 0.05604362197510111, 0.21852851189376565, 0.8120110483224651
245102, -0.3333670198917389, -1.3182982206344604, 2.554504871368408, -0.020785387605428696, -0.007564403582364321, 1.001336932182312, 0.125762939453125, 9362.0, 28835.0, 32767.0, 9362.0, 0.0, 7.973554611206055, -0.31425485014915466, -0.4045023024082184, 0.06066697835922241, 0.1534133992557855, 0.2433258833877403, 1.2981961353954459
245112, -0.3323039710521698, -1.3192309141159058, 2.5549211502075195, -0.02141081914305687, -0.006386530119925737, 1.0031816959381104, 0.1367034912109375, 9362.0, 28835.0, 32767.0, 9362.0, 0.0, 7.973554611206055, -0.31451714038848877, -0.40493741631507874, 0.06137288361787796, 0.05825692942894174, 0.22445798189897914, 0.805369534254441
245122, -0.3322858214378357, -1.3171439170837402, 2.554088830947876, -0.018628090620040894, -0.005346761085093021, 1.0007896423339844, 0.1367034912109375, 9362.0, 28835.0, 32767.0, 9362.0, 0.0, 7.973554611206055, -0.314453661441803, -0.40499961376190186, 0.06138639897108078, 0.046946367810483385, 0.22759501052084374, 0.8769752059330582
245132, -0.33278095722198486, -1.3172619342803955, 2.554001569747925, -0.02064771205186844, -0.005478889215737581, 0.9998413920402527, 0.1585693359375, 9362.0, 28835.0, 32767.0, 9362.0, 0.0, 7.973554611206055, -0.31463494896888733, -0.40480858087539673, 0.061375707387924194, 0.025442299990448013, 0.3088511896967816, 0.8097394537171373
245142, -0.3314099907875061, -1.3178471326828003, 2.555572986602783, -0.020860858261585236, -0.006716206669807434, 1.0006380081176758, 0.1585693359375, 9362.0, 28835.0, 32767.0, 9362.0, 0.0, 7.973554611206055, -0.31404680013656616, -0.4049467444419861, 0.06090868264436722, 0.1733050605461519, 0.43755057332518277, 1.0769285277297183
245152, -0.3331524133682251, -1.3184398412704468, 2.556119680404663, -0.020661497488617897, -0.008483478799462318, 1.0019396543502808, 0.218719482421875, 9362.0, 28835.0, 32767.0, 9362.0, 0.0, 7.973554611206055, -0.31404241919517517, -0.4049392640590668, 0.06089101731777191, 0.17767150907061946, 0.4363012424887813, 1.079030239292492
245162, -0.33439329266548157, -1.3185354471206665, 2.5560786724090576, -0.02139601670205593, -0.00862501747906208, 1.00296151638031, 0.218719482421875, 9362.0, 28835.0, 32767.0, 9362.0, 0.0, 7.973554611206055, -0.3141542971134186, -0.4048220217227936, 0.061105307191610336, 0.21127637438077382, 0.39523598302127994, 1.069519037970952
245172, -0.33501341938972473, -1.3189096450805664, 2.5577566623687744, -0.021270062774419785, -0.007854685187339783, 1.0018880367279053, 0.16130828857421875, 9362.0, 28835.0, 32767.0, 9362.0, 0.0, 7.973554611206055, -0.3145243525505066, -0.40493759512901306, 0.06139921024441719, 0.05423195370974233, 0.21451371667961894, 0.7985214681104847
245182, -0.335918128490448, -1.3183714151382446, 2.558941602706909, -0.02236660197377205, -0.004229105077683926, 1.002532958984375, 0.16130828857421875, 9362.0, 28835.0, 32767.0, 9362.0, 0.0, 7.973554611206055, -0.3142428398132324, -0.40580061078071594, 0.06005222722887993, -0.026078325398811636, 0.19498155719014676, 0.45621665602798356
245192, -0.33652639389038086, -1.3177310228347778, 2.5580368041992188, -0.020794296637177467, -0.004879911430180073, 1.0005558729171753, 0.17498016357421875, 9362.0, 28835.0, 32767.0, 9362.0, 0.0, 7.973554611206055, -0.3144479990005493, -0.40499988198280334, 0.061398573219776154, 0.03522997327067733, 0.2277878245802185, 0.8784770574693376
245202, -0.33803069591522217, -1.3170493841171265, 2.558457612991333, -0.019135426729917526, -0.007495969068259001, 1.0006811618804932, 0.17498016357421875, 9362.0, 28835.0, 32767.0, 9362.0, 0.0, 7.973554611206055, -0.3143395781517029, -0.40454134345054626, 0.06020411103963852, 0.06272386234941481, 0.3775671239951066, 1.338998123443307
245212, -0.33804675936698914, -1.3171122074127197, 2.5596139430999756, -0.02132783830165863, -0.004806695505976677, 0.9996649026870728, 0.2405853271484375, 9362.0, 28835.0, 32767.0, 9362.0, 0.0, 7.973554611206055, -0.3142460882663727, -0.4058040976524353, 0.06004694104194641, -0.02149263764099346, 0.1900689024594442, 0.46132331077388594
245222, -0.3373948037624359, -1.3168145418167114, 2.558676242828369, -0.02225787565112114, -0.005538931116461754, 1.0006794929504395, 0.2405853271484375, 9362.0, 28835.0, 32767.0, 9362.0, 0.0, 7.973554611206055, -0.3146209120750427, -0.4046191871166229, 0.06092209368944168, -0.0408040398808054, 0.08425217393090634, 1.1408944131051293
245232, -0.3374454081058502, -1.3161097764968872, 2.55888032913208, -0.022096524015069008, -0.0072555867955088615, 1.0000020265579224, 0.22692108154296875, 9362.0, 28835.0, 32767.0, 9362.0, 0.0, 7.973554611206055, -0.3141651749610901, -0.4048303961753845, 0.0610717311501503, 0.21736887208945027, 0.38895625457374194, 1.062742636809626
245242, -0.3385126292705536, -1.314448595046997, 2.558551073074341, -0.021234389394521713, -0.006364658009260893, 1.0019100904464722, 0.22692108154296875, 9362.0, 28835.0, 32767.0, 9362.0, 0.0, 7.973554611206055, -0.3143100440502167, -0.40481317043304443, 0.06105946749448776, 0.22047177477031704, 0.5125199504647071, 1.1305992565004677
245252, -0.33825284242630005, -1.3140207529067993, 2.5598461627960205, -0.020461777225136757, -0.005018768832087517, 1.001326560974121, 0.16950225830078125, 9362.0, 28835.0, 32767.0, 9362.0, 0.0, 7.973554611206055, -0.31451988220214844, -0.4049340486526489, 0.061363834887742996, 0.06572450933534048, 0.22884106255341408, 0.809106990138967
245262, -0.3384455442428589, -1.3140846490859985, 2.5595741271972656, -0.022506892681121826, -0.005589823704212904, 1.0005706548690796, 0.16950225830078125, 9362.0, 28835.0, 32767.0, 9362.0, 0.0, 7.973554611206055, -0.31446313858032227, -0.4050008952617645, 0.061385754495859146, 0.04346272614992856, 0.2308746105357784, 0.873318523992031
245272, -0.33720046281814575, -1.3131046295166016, 2.560499429702759, -0.02060377225279808, -0.004339584149420261, 1.000993251800537, 0.1367034912109375, 9362.0, 28835.0, 32767.0, 9362.0, 0.0, 7.973554611206055, -0.3144935369491577, -0.4048873782157898, 0.06146366894245148, 0.07881760158328902, 0.22137707961471165, 0.8693051819252965
245282, -0.3370669484138489, -1.311226487159729, 2.559326648712158, -0.02234714664518833, -0.0057639083825051785, 1.0013364553451538, 0.1367034912109375, 9362.0, 28835.0, 32767.0, 9362.0, 0.0, 7.973554611206055, -0.31471583247184753, -0.40482887625694275, 0.06148868426680565, 0.044252993700506574, 0.2856213161590233, 0.8506222437352223
245292, -0.3361770808696747, -1.3089326620101929, 2.5600297451019287, -0.02300766482949257, -0.005329777020961046, 1.0015969276428223, 0.1476287841796875, 9362.0, 28835.0, 32767.0, 9362.0, 0.0, 7.973554611206055, -0.31456220149993896, -0.40483802556991577, 0.0614730529487133, 0.08627082709445501, 0.20919807283149794, 0.8071724044919104
245302, -0.333883136510849, -1.3083099126815796, 2.5588855743408203, -0.0229184590280056, -0.004615266807377338, 1.0004091262817383, 0.1476287841796875, 9362.0, 28835.0, 32767.0, 9362.0, 0.0, 7.973554611206055, -0.3144613206386566, -0.4050028920173645, 0.06139196828007698, 0.04549869207091277, 0.2316545956267646, 0.8791559097489384
245312, -0.33369147777557373, -1.3083970546722412, 2.558328866958618, -0.023881860077381134, -0.005339574068784714, 1.002522587776184, 0.153106689453125, 9362.0, 28835.0, 32767.0, 9362.0, 0.0, 7.973554611206055, -0.3145222067832947, -0.40493306517601013, 0.06135397031903267, 0.05375794327978034, 0.22672853792838055, 0.8057169487606322
245322, -0.3347281813621521, -1.31134831905365, 2.5562684535980225, -0.021725136786699295, -0.007490839343518019, 1.002678632736206, 0.153106689453125, 9362.0, 28835.0, 32767.0, 9362.0, 0.0, 7.973554611206055, -0.3144873082637787, -0.4048996567726135, 0.06147080659866333, 0.06918632592779007, 0.21776551036813885, 0.8693985871536325
245332, -0.333939790725708, -1.3104755878448486, 2.5557353496551514, -0.021736223250627518, -0.0052726492285728455, 1.0012764930725098, 0.1585693359375, 9362.0, 28835.0, 32767.0, 9362.0, 0.0, 7.973554611206055, -0.31451860070228577, -0.40493670105934143, 0.06135035306215286, 0.05657822326863596, 0.22427487278301328, 0.8095200276013513
245342, -0.3327949643135071, -1.312383770942688, 2.55572772026062, -0.023139694705605507, -0.004706255625933409, 0.9998106956481934, 0.1585693359375, 9362.0, 28835.0, 32767.0, 9362.0, 0.0, 7.973554611206055, -0.31445881724357605, -0.40500950813293457, 0.06139001250267029, 0.04285447871049174, 0.2354003807315337, 0.8747777268247716
245352, -0.33253058791160583, -1.3147701025009155, 2.5549941062927246, -0.022252624854445457, -0.003732099663466215, 1.0008273124694824, 0.1284942626953125, 9362.0, 28835.0, 32767.0, 9362.0, 0.0, 7.973554611206055, -0.3145311772823334, -0.40493372082710266, 0.06136246770620346, 0.0580708483190435, 0.216194586497096, 0.8120410516610373
245362, -0.3321886360645294, -1.3139196634292603, 2.5532445907592773, -0.022311270236968994, -0.00418389355763793, 1.00025475025177, 0.1284942626953125, 9362.0, 28835.0, 32767.0, 9362.0, 0.0, 7.973554611206055, -0.3145392835140228, -0.40484312176704407, 0.061463553458452225, 0.08031566759699243, 0.2145655145916976, 0.8047462942503502
245372, -0.3324258625507355, -1.3115692138671875, 2.553403854370117, -0.021620722487568855, -0.008640745654702187, 0.9997147917747498, 0.139434814453125, 9362.0, 28835.0, 32767.0, 9362.0, 0.0, 7.973554611206055, -0.3144833743572235, -0.4048881530761719, 0.06148089841008186, 0.0718712263226512, 0.22188400597534041, 0.8699001642966568
245382, -0.3326434791088104, -1.3107413053512573, 2.5533761978149414, -0.0217758622020483, -0.009950974024832249, 1.0023202896118164, 0.139434814453125, 9362.0, 28835.0, 32767.0, 9362.0, 0.0, 7.973554611206055, -0.3141661286354065, -0.40586137771606445, 0.060039911419153214, -0.04797191842584636, 0.1928009930422263, 0.5205292730064205
245392, -0.3334665596485138, -1.3105884790420532, 2.5534861087799072, -0.022158779203891754, -0.008814826607704163, 1.0023499727249146, 0.1722412109375, 9362.0, 28835.0, 32767.0, 9362.0, 0.0, 7.973554611206055, -0.31467920541763306, -0.4045388698577881, 0.06090686097741127, -0.029139274875181625, 0.07459789396284577, 1.0897562347610137
245402, -0.3348153233528137, -1.3114923238754272, 2.551764726638794, -0.021564390510320663, -0.007063211873173714, 0.999801516532898, 0.1722412109375, 9362.0, 28835.0, 32767.0, 9362.0, 0.0, 7.973554611206055, -0.3146321475505829, -0.4047980010509491, 0.06137114390730858, 0.01494680611944175, 0.3165854314750334, 0.8159605037523872
245412, -0.3349902927875519, -1.3114014863967896, 2.5510976314544678, -0.02145206928253174, -0.004771477542817593, 0.9983292818069458, 0.2159881591796875, 9362.0, 28835.0, 32767.0, 9362.0, 0.0, 7.973554611206055, -0.3144487738609314, -0.4049834907054901, 0.06137363240122795, 0.03732701778054194, 0.22503146504993765, 0.8838505185897592
245422, -0.3361687660217285, -1.313173770904541, 2.5498549938201904, -0.022065285593271255, -0.007076965644955635, 1.0001577138900757, 0.2159881591796875, 9362.0, 28835.0, 32767.0, 9362.0, 0.0, 7.973554611206055, -0.31445854902267456, -0.40499991178512573, 0.06138930097222328, 0.042249407264464474, 0.2325848788388214, 0.8768091305136299
245432, -0.3365105986595154, -1.3127763271331787, 2.549935817718506, -0.02039363607764244, -0.005327593069523573, 1.0009641647338867, 0.2023162841796875, 9362.0, 28835.0, 32767.0, 9362.0, 0.0, 7.973554611206055, -0.3144512474536896, -0.40500393509864807, 0.06137209013104439, 0.041896085598854806, 0.2371620678659383, 0.8775495916084226
245442, -0.3372921943664551, -1.3122930526733398, 2.5502140522003174, -0.02097621187567711, -0.005386023316532373, 1.0024712085723877, 0.2023162841796875, 9362.0, 28835.0, 32767.0, 9362.0, 0.0, 7.973554611206055, -0.3145139813423157, -0.40493619441986084, 0.061362482607364655, 0.062342722358339146, 0.22253350362979063, 0.8058680394175813
245452, -0.3375670909881592, -1.313291311264038, 2.5519425868988037, -0.02275944873690605, -0.00623147189617157, 1.0003138780593872, 0.17498016357421875, 9362.0, 28835.0, 32767.0, 9362.0, 0.0, 7.973554611206055, -0.31449511647224426, -0.4048783481121063, 0.06147094815969467, 0.07198183903135605, 0.20932418643906203, 0.86370953352498
245462, -0.33670204877853394, -1.3135319948196411, 2.5529468059539795, -0.022748861461877823, -0.00608461070805788, 1.0000014305114746, 0.17498016357421875, 9362.0, 28835.0, 32767.0, 9362.0, 0.0, 7.973554611206055, -0.3144596219062805, -0.4050023555755615, 0.06136947497725487, 0.04595880504146057, 0.22921878286280162, 0.8768528221652467
245472, -0.3374025821685791, -1.3138141632080078, 2.5518360137939453, -0.02233698219060898, -0.0073859840631484985, 1.0025897026062012, 0.18317413330078125, 9362.0, 28835.0, 32767.0, 9362.0, 0.0, 7.973554611206055, -0.3141809403896332, -0.40586814284324646, 0.06003838777542114, -0.04172614835547713, 0.19272624498046298, 0.5175318220301252
245482, -0.33421504497528076, -1.3135863542556763, 2.5531561374664307, -0.02198013663291931, -0.006030650343745947, 0.9998447895050049, 0.18317413330078125, 9362.0, 28835.0, 32767.0, 9362.0, 0.0, 7.973554611206055, -0.31455910205841064, -0.40484604239463806, 0.06144958734512329, 0.08657802065499978, 0.21148631313866417, 0.8114203871615437
245492, -0.333009272813797, -1.3134825229644775, 2.553572177886963, -0.022590797394514084, -0.006678401492536068, 1.0000989437103271, 0.1722412109375, 9362.0, 28835.0, 32767.0, 9362.0, 0.0, 7.973554611206055, -0.3145820200443268, -0.40495574474334717, 0.061220433562994, -0.022571742394180715, 0.33077920425958496, 0.8790264894966968
245502, -0.33333486318588257, -1.3134069442749023, 2.554112672805786, -0.022297151386737823, -0.0059334468096494675, 1.0007328987121582, 0.1722412109375, 9362.0, 28835.0, 32767.0, 9362.0, 0.0, 7.973554611206055, -0.3142470717430115, -0.4058038890361786, 0.060045234858989716, -0.022746019772469143, 0.20052347523088088, 0.4555792195834222
245512, -0.33227795362472534, -1.3139675855636597, 2.5540826320648193, -0.022099316120147705, -0.0046957009471952915, 1.0015032291412354, 0.19411468505859375, 9362.0, 28835.0, 32767.0, 9362.0, 0.0, 7.973554611206055, -0.31456148624420166, -0.40485209226608276, 0.06145131215453148, 0.0809836185651851, 0.21305637231995433, 0.8131101855432339
245522, -0.331884503364563, -1.315373420715332, 2.5538599491119385, -0.021262947469949722, -0.005075657740235329, 1.0011863708496094, 0.19411468505859375, 9362.0, 28835.0, 32767.0, 9362.0, 0.0, 7.973554611206055, -0.31464359164237976, -0.40490448474884033, 0.061194442212581635, 0.005743202064202182, 0.3266464774411588, 0.8112802608827611
245532, -0.33206868171691895, -1.3149068355560303, 2.5534961223602295, -0.022943824529647827, -0.004966812673956156, 1.0007033348083496, 0.21051788330078125, 9362.0, 28835.0, 32767.0, 9362.0, 0.0, 7.973554611206055, -0.31455525755882263, -0.4048405587673187, 0.06146767735481262, 0.08668425300738494, 0.20804742180990843, 0.8101636139519134
245542, -0.33291059732437134, -1.3140153884887695, 2.5536303520202637, -0.021607553586363792, -0.005341813899576664, 1.000664472579956, 0.21051788330078125, 9362.0, 28835.0, 32767.0, 9362.0, 0.0, 7.973554611206055, -0.31450116634368896, -0.404887318611145, 0.061477407813072205, 0.06932025978479059, 0.2101564117877217, 0.8723169989693161
245552, -0.3326772451400757, -1.3139861822128296, 2.553900957107544, -0.021595779806375504, -0.00551689974963665, 1.0007920265197754, 0.18863677978515625, 9362.0, 28835.0, 32767.0, 9362.0, 0.0, 7.973554611206055, -0.31455734372138977, -0.40491142868995667, 0.06159881129860878, 0.08925470041302444, 0.19905168246557992, 0.9116343368245438
245562, -0.3334750235080719, -1.3146730661392212, 2.555298089981079, -0.021458031609654427, -0.007094160187989473, 1.0009512901306152, 0.18863677978515625, 9362.0, 28835.0, 32767.0, 9362.0, 0.0, 7.973554611206055, -0.31424984335899353, -0.4058150351047516, 0.06003886088728905, -0.01926986646064732, 0.19075860326017846, 0.45149718024319896
245572, -0.3334372043609619, -1.3138009309768677, 2.556046724319458, -0.01963130570948124, -0.005527782719582319, 1.001916766166687, 0.1722412109375, 9362.0, 28835.0, 32767.0, 9362.0, 0.0, 7.973554611206055, -0.31467491388320923, -0.40433403849601746, 0.06122078374028206, 0.10997447166816907, -0.0013369049292464297, 1.0430825839343343
245582, -0.33418887853622437, -1.313308596611023, 2.555281162261963, -0.020775629207491875, -0.00456960778683424, 1.0008912086486816, 0.1722412109375, 9362.0, 28835.0, 32767.0, 9362.0, 0.0, 7.973554611206055, -0.3146827220916748, -0.4045698940753937, 0.06089852377772331, -0.02317917172676165, 0.07846939403341935, 1.0823071738572547
245592, -0.3333742618560791, -1.313152551651001, 2.554807662963867, -0.021517960354685783, -0.004995181690901518, 0.9994477033615112, 0.1148223876953125, 9362.0, 28835.0, 32767.0, 9362.0, 0.0, 7.973554611206055, -0.3142406940460205, -0.40579894185066223, 0.060021739453077316, -0.02832169155013083, 0.1932347745578511, 0.4487245220309202
245602, -0.33359625935554504, -1.311291217803955, 2.554811477661133, -0.020259611308574677, -0.005266150925308466, 1.0012414455413818, 0.1148223876953125, 9362.0, 28835.0, 32767.0, 9362.0, 0.0, 7.973554611206055, -0.3145580589771271, -0.40484702587127686, 0.06144699826836586, 0.08426355939094962, 0.2105087720484562, 0.8086306318748286
245612, -0.33371976017951965, -1.3122470378875732, 2.554494857788086, -0.021866947412490845, -0.005821169354021549, 1.0033464431762695, 0.0956878662109375, 9362.0, 28835.0, 32767.0, 9362.0, 0.0, 7.973554611206055, -0.3140465319156647, -0.40495556592941284, 0.06085669994354248, 0.17411387331451328, 0.43333967756669267, 1.0837099355841864
245622, -0.33325231075286865, -1.311268925666809, 2.554018974304199, -0.02119532786309719, -0.0042106639593839645, 1.004321813583374, 0.0956878662109375, 9362.0, 28835.0, 32767.0, 9362.0, 0.0, 7.973554611206055, -0.31465405225753784, -0.40488001704216003, 0.06147095188498497, 0.016396685241868682, 0.2921169577822127, 0.909261187352031
245632, -0.33224374055862427, -1.3104979991912842, 2.5541701316833496, -0.021333657205104828, -0.005772328469902277, 1.0029711723327637, 0.16950225830078125, 9362.0, 28835.0, 32767.0, 9362.0, 0.0, 7.973554611206055, -0.31454575061798096, -0.4049457013607025, 0.0613410547375679, 0.059127363873511724, 0.21319151033128492, 0.807677456119172
245642, -0.331780344247818, -1.309959053993225, 2.554425001144409, -0.022761542350053787, -0.006010538898408413, 1.001297950744629, 0.16950225830078125, 9362.0, 28835.0, 32767.0, 9362.0, 0.0, 7.973554611206055, -0.31445714831352234, -0.40499192476272583, 0.061351798474788666, 0.04171811374674925, 0.2339144504338435, 0.8793113547320078
245652, -0.33187490701675415, -1.3111422061920166, 2.553964614868164, -0.023310553282499313, -0.005514946766197681, 0.9996755719184875, 0.1367034912109375, 9362.0, 28835.0, 32767.0, 9362.0, 0.0, 7.973554611206055, -0.31455183029174805, -0.4048469662666321, 0.061437394469976425, 0.08596995319498105, 0.2119603790519875, 0.8072304782864272
245662, -0.33126717805862427, -1.3120421171188354, 2.5528762340545654, -0.022696703672409058, -0.005484616383910179, 0.997736930847168, 0.1367034912109375, 9362.0, 28835.0, 32767.0, 9362.0, 0.0, 7.973554611206055, -0.31459707021713257, -0.4048554003238678, 0.06136324629187584, 0.02066710309993867, 0.31205421304986203, 0.8745481898032106
245672, -0.33235839009284973, -1.3116471767425537, 2.552273750305176, -0.022910652682185173, -0.005458231549710035, 1.0013618469238281, 0.1558380126953125, 9362.0, 28835.0, 32767.0, 9362.0, 0.0, 7.973554611206055, -0.31454622745513916, -0.4048505127429962, 0.06142326816916466, 0.09176978421708885, 0.204813223198272, 0.8082573780476353
245682, -0.3314245343208313, -1.3132753372192383, 2.551386833190918, -0.021221883594989777, -0.005750274285674095, 1.001593828201294, 0.1558380126953125, 9362.0, 28835.0, 32767.0, 9362.0, 0.0, 7.973554611206055, -0.31459692120552063, -0.4048379957675934, 0.06134369969367981, 0.01610633487401238, 0.3123860518763877, 0.8726892069165448
245692, -0.33177536725997925, -1.3138502836227417, 2.551703691482544, -0.022053459659218788, -0.006060943007469177, 1.0002174377441406, 0.1367034912109375, 9362.0, 28835.0, 32767.0, 9362.0, 0.0, 7.973554611206055, -0.3146267235279083, -0.4048660397529602, 0.0615750253200531, 0.09804976976330256, 0.18302286642722265, 0.8454412701383703
245702, -0.3311775326728821, -1.3163868188858032, 2.551136016845703, -0.021879062056541443, -0.004192789550870657, 1.0003880262374878, 0.1367034912109375, 9362.0, 28835.0, 32767.0, 9362.0, 0.0, 7.973554611206055, -0.31457704305648804, -0.40496009588241577, 0.06118103489279747, -0.016841826159954887, 0.3293639805162911, 0.8713487511784372
245712, -0.33041438460350037, -1.3163982629776, 2.5509936809539795, -0.02233806438744068, -0.005197887774556875, 0.9999599456787109, 0.18863677978515625, 9362.0, 28835.0, 32767.0, 9362.0, 0.0, 7.973554611206055, -0.31452277302742004, -0.40493646264076233, 0.061318956315517426, 0.06246484067242055, 0.22623154015215619, 0.8054513712003466
245722, -0.3293607532978058, -1.318446159362793, 2.5521650314331055, -0.022751986980438232, -0.005328767467290163, 1.0016911029815674, 0.18863677978515625, 9362.0, 28835.0, 32767.0, 9362.0, 0.0, 7.973554611206055, -0.3147132396697998, -0.4048393964767456, 0.06146381050348282, 0.040796518754032784, 0.28410044348350993, 0.8494718943279097
245732, -0.33007121086120605, -1.3178218603134155, 2.551699638366699, -0.02026129886507988, -0.005531921982765198, 1.004246473312378, 0.19684600830078125, 9362.0, 28835.0, 32767.0, 9362.0, 0.0, 7.973554611206055, -0.31451573967933655, -0.4049532115459442, 0.061338454484939575, 0.05875018008250304, 0.2213010379606999, 0.7997178188532071
245742, -0.3292624354362488, -1.316590428352356, 2.551931142807007, -0.021475154906511307, -0.004607191309332848, 1.0036084651947021, 0.19684600830078125, 9362.0, 28835.0, 32767.0, 9362.0, 0.0, 7.973554611206055, -0.31430625915527344, -0.40554705262184143, 0.06075314059853554, -0.05535607870004064, 0.22251242514010983, 0.5431257065686774
245752, -0.3300115466117859, -1.316604733467102, 2.5525951385498047, -0.02065577544271946, -0.0055059706792235374, 1.0011472702026367, 0.232391357421875, 9362.0, 28835.0, 32767.0, 9362.0, 0.0, 7.973554611206055, -0.3145601749420166, -0.40486735105514526, 0.061440106481313705, 0.08237247312206192, 0.20734996355108137, 0.8083773570873182
245762, -0.3305583894252777, -1.3177669048309326, 2.551570415496826, -0.02011657878756523, -0.0037124198861420155, 1.000821828842163, 0.232391357421875, 9362.0, 28835.0, 32767.0, 9362.0, 0.0, 7.973554611206055, -0.3141801357269287, -0.4058617949485779, 0.06000899523496628, -0.04318379181282109, 0.1911839345944486, 0.9103497072268888
245772, -0.33017945289611816, -1.3175679445266724, 2.551297903060913, -0.024245692417025566, -0.0052698045037686825, 0.9991132616996765, 0.2405853271484375, 9362.0, 28835.0, 32767.0, 9362.0, 0.0, 7.973554611206055, -0.31460562348365784, -0.40484893321990967, 0.06132447347044945, 0.02318599543895508, 0.31612879318583964, 0.8691933018206875
245782, -0.32881277799606323, -1.3183280229568481, 2.5523695945739746, -0.02311416156589985, -0.00599013501778245, 1.000192403793335, 0.2405853271484375, 9362.0, 28835.0, 32767.0, 9362.0, 0.0, 7.973554611206055, -0.31464168429374695, -0.4049050807952881, 0.0611717626452446, 0.00041635504293018917, 0.3319738516292432, 0.8099953475475394
245792, -0.32814541459083557, -1.3177646398544312, 2.553948402404785, -0.022538475692272186, -0.005037442781031132, 1.0000146627426147, 0.25699615478515625, 9362.0, 28835.0, 32767.0, 9362.0, 0.0, 7.973554611206055, -0.3146698474884033, -0.40463903546333313, 0.06183042377233505, 0.23322082546858894, 0.1145175349427916, 0.7855123500911452
245802, -0.32897087931632996, -1.317720890045166, 2.5542991161346436, -0.02103598043322563, -0.0045735156163573265, 1.0004286766052246, 0.25699615478515625, 9362.0, 28835.0, 32767.0, 9362.0, 0.0, 7.973554611206055, -0.31426364183425903, -0.40580829977989197, 0.06002078205347061, -0.023725434256540452, 0.19439400023568965, 0.4481292988462816
245812, -0.3295605182647705, -1.3175705671310425, 2.554206132888794, -0.02358504757285118, -0.006296742241829634, 0.9998430013656616, 0.28980255126953125, 9362.0, 28835.0, 32767.0, 9362.0, 0.0, 7.973554611206055, -0.31418442726135254, -0.405866414308548, 0.06002192571759224, -0.050308999330137986, 0.1921984092136313, 0.5167176396939581
245822, -0.3302474021911621, -1.3178091049194336, 2.5532357692718506, -0.022327974438667297, -0.005813308991491795, 1.0019071102142334, 0.28980255126953125, 9362.0, 28835.0, 32767.0, 9362.0, 0.0, 7.973554611206055, -0.31449630856513977, -0.40489432215690613, 0.06144273281097412, 0.0749696743012707, 0.21796825723458824, 0.8783075382554074
245832, -0.3297245502471924, -1.3165911436080933, 2.553717613220215, -0.02151378244161606, -0.005637089256197214, 1.00177001953125, 0.2487945556640625, 9362.0, 28835.0, 32767.0, 9362.0, 0.0, 7.973554611206055, -0.3144533634185791, -0.4048442840576172, 0.06147828325629234, 0.07277775835682729, 0.2210122594899815, 0.8398674244411796
245842, -0.3298500180244446, -1.3175033330917358, 2.552795648574829, -0.022790463641285896, -0.0059539698995649815, 1.0021553039550781, 0.2487945556640625, 9362.0, 28835.0, 32767.0, 9362.0, 0.0, 7.973554611206055, -0.31449002027511597, -0.40488314628601074, 0.06146962568163872, 0.07659354837502774, 0.22152144220819991, 0.8801864454407011
245852, -0.33062756061553955, -1.3175886869430542, 2.551994562149048, -0.02221997082233429, -0.0072458647191524506, 1.0017693042755127, 0.2487945556640625, 9362.0, 28835.0, 32767.0, 9362.0, 0.0, 7.973554611206055, -0.31447890400886536, -0.4050137996673584, 0.06134198606014252, 0.04127011935294247, 0.23408963695038665, 0.8751171532314312
245862, -0.3297134041786194, -1.3172492980957031, 2.5521702766418457, -0.02194361202418804, -0.007181771099567413, 1.0007658004760742, 0.2487945556640625, 9362.0, 28835.0, 32767.0, 9362.0, 0.0, 7.973554611206055, -0.31462720036506653, -0.40486931800842285, 0.06159628555178642, 0.09471799457170631, 0.1929674535941217, 0.8448254059776797
245872, -0.3309370279312134, -1.3181921243667603, 2.5516490936279297, -0.020892148837447166, -0.006299423519521952, 1.001104712486267, 0.19411468505859375, 9362.0, 28835.0, 32767.0, 9362.0, 0.0, 7.973554611206055, -0.3146496117115021, -0.40480726957321167, 0.06131565943360329, 0.02205080222144504, 0.31237303885072265, 0.8131872924270462
245882, -0.33032354712486267, -1.3178049325942993, 2.5514938831329346, -0.021594766527414322, -0.005213211756199598, 1.0005475282669067, 0.19411468505859375, 9362.0, 28835.0, 32767.0, 9362.0, 0.0, 7.973554611206055, -0.31418073177337646, -0.4058764576911926, 0.06002561375498772, -0.038072817576024987, 0.1895005309101805, 0.5199193914506952
245892, -0.33007311820983887, -1.317781925201416, 2.551246166229248, -0.01982920430600643, -0.005472381599247456, 0.9999918937683105, 0.0628814697265625, 9362.0, 28835.0, 32767.0, 9362.0, 0.0, 7.973554611206055, -0.31418919563293457, -0.40586918592453003, 0.06000595539808273, -0.03182429967152741, 0.1962834408511469, 0.5166432424437308
245902, -0.3301351070404053, -1.3175910711288452, 2.551439046859741, -0.02002294547855854, -0.008008478209376335, 1.001661777496338, 0.0628814697265625, 9362.0, 28835.0, 32767.0, 9362.0, 0.0, 7.973554611206055, -0.31472450494766235, -0.4048334062099457, 0.06150026619434357, 0.04356512122635607, 0.29353892273255155, 0.8490523110444819
245912, -0.32997456192970276, -1.3173892498016357, 2.5517115592956543, -0.020993269979953766, -0.008439065888524055, 1.002408504486084, 0.0437469482421875, 9362.0, 28835.0, 32767.0, 9362.0, 0.0, 7.973554611206055, -0.31472131609916687, -0.4048294723033905, 0.06150214746594429, 0.047795401920409514, 0.28573072975538594, 0.8451883006078759
245922, -0.3311605453491211, -1.3142989873886108, 2.5528180599212646, -0.02102527767419815, -0.0059919715858995914, 1.0020384788513184, 0.0437469482421875, 9362.0, 28835.0, 32767.0, 9362.0, 0.0, 7.973554611206055, -0.3145191967487335, -0.40492868423461914, 0.06133335456252098, 0.06889415470037795, 0.23196400034717612, 0.8121772199250602
245932, -0.3313904404640198, -1.3149226903915405, 2.55216908454895, -0.021757937967777252, -0.003248065710067749, 0.9991644620895386, 0.07654571533203125, 9362.0, 28835.0, 32767.0, 9362.0, 0.0, 7.973554611206055, -0.3146558105945587, -0.4048197567462921, 0.061324167996644974, 0.02662700232818556, 0.31014639766837604, 0.8054808661089888
245942, -0.33204397559165955, -1.3145267963409424, 2.551955223083496, -0.023018628358840942, -0.00603148527443409, 1.0003719329833984, 0.07654571533203125, 9362.0, 28835.0, 32767.0, 9362.0, 0.0, 7.973554611206055, -0.31457266211509705, -0.40491682291030884, 0.06157708913087845, 0.08347961417965784, 0.20784933389981575, 0.9025851356374367
245952, -0.3323972225189209, -1.3156390190124512, 2.5519237518310547, -0.019703280180692673, -0.006974891759455204, 1.0014801025390625, 0.09842681884765625, 9362.0, 28835.0, 32767.0, 9362.0, 0.0, 7.973554611206055, -0.3144588768482208, -0.4049983620643616, 0.06133543327450752, 0.037558544788830986, 0.23188406060106104, 0.8704987092944819
245962, -0.3339911699295044, -1.317888617515564, 2.552185297012329, -0.019905857741832733, -0.006582382135093212, 1.00321626663208, 0.09842681884765625, 9362.0, 28835.0, 32767.0, 9362.0, 0.0, 7.973554611206055, -0.31464454531669617, -0.40481752157211304, 0.06133977696299553, 0.026298544792303168, 0.3145939266959772, 0.8151583035265398
245972, -0.33392149209976196, -1.3184618949890137, 2.551612377166748, -0.02278050407767296, -0.005815813317894936, 1.0019360780715942, 0.10115814208984375, 9362.0, 28835.0, 32767.0, 9362.0, 0.0, 7.973554611206055, -0.3141738772392273, -0.40585941076278687, 0.06003358215093613, -0.04566359747541111, 0.1979316627192702, 0.5245193382234745
245982, -0.3344404399394989, -1.3181025981903076, 2.5520870685577393, -0.02322370558977127, -0.004389467649161816, 0.9998633861541748, 0.10115814208984375, 9362.0, 28835.0, 32767.0, 9362.0, 0.0, 7.973554611206055, -0.31448498368263245, -0.40500614047050476, 0.06134837120771408, 0.03959684420324292, 0.2250628860505799, 0.8734649632709608
245992, -0.3336827754974365, -1.318647027015686, 2.552687883377075, -0.02234940603375435, -0.005641009192913771, 1.0010652542114258, 0.0628814697265625, 9362.0, 28835.0, 32767.0, 9362.0, 0.0, 7.973554611206055, -0.31460854411125183, -0.4048384428024292, 0.06133301556110382, 0.01688634680622309, 0.31902873488118644, 0.879047096646866
246002, -0.33184871077537537, -1.3195958137512207, 2.553255558013916, -0.022404590621590614, -0.005754237063229084, 1.002827525138855, 0.0628814697265625, 9362.0, 28835.0, 32767.0, 9362.0, 0.0, 7.973554611206055, -0.3142526149749756, -0.4047866761684418, 0.060917146503925323, 0.19522096278580434, 0.5197313652037678, 1.0895367516755174
246012, -0.33185073733329773, -1.318453073501587, 2.5532381534576416, -0.02003423497080803, -0.005410680081695318, 1.003511905670166, 0.1230316162109375, 9362.0, 28835.0, 32767.0, 9362.0, 0.0, 7.973554611206055, -0.3146030008792877, -0.404835969209671, 0.061342544853687286, 0.010579421121516948, 0.3148564836471053, 0.8800116617553289
246022, -0.33220115303993225, -1.3166536092758179, 2.5526657104492188, -0.021895958110690117, -0.005468512885272503, 1.0021824836730957, 0.1230316162109375, 9362.0, 28835.0, 32767.0, 9362.0, 0.0, 7.973554611206055, -0.3142513334751129, -0.4058060944080353, 0.060004450380802155, -0.02596577202245977, 0.1897305573177448, 0.45140262424979666
246032, -0.3322244882583618, -1.3165658712387085, 2.5537655353546143, -0.02357705868780613, -0.005697277840226889, 1.0007319450378418, 0.15036773681640625, 9362.0, 28835.0, 32767.0, 9362.0, 0.0, 7.973554611206055, -0.3145313262939453, -0.40495797991752625, 0.06133801490068436, 0.0550321647473425, 0.2213057163017993, 0.8002385222039183
246042, -0.3332022428512573, -1.3166916370391846, 2.553036689758301, -0.0215713232755661, -0.00474923150613904, 1.0019283294677734, 0.15036773681640625, 9362.0, 28835.0, 32767.0, 9362.0, 0.0, 7.973554611206055, -0.3144647479057312, -0.40499842166900635, 0.06132645905017853, 0.045115008523452786, 0.22837189439479744, 0.8754939269687075
246052, -0.3313913643360138, -1.3171944618225098, 2.5531811714172363, -0.021728651598095894, -0.007160677574574947, 1.0011078119277954, 0.10115814208984375, 9362.0, 28835.0, 32767.0, 9362.0, 0.0, 7.973554611206055, -0.31471139192581177, -0.40483683347702026, 0.06145859509706497, 0.03624150661610218, 0.2909413952373541, 0.8490340659852438
246062, -0.33014124631881714, -1.3171366453170776, 2.5533370971679688, -0.021375373005867004, -0.005421431735157967, 1.0007438659667969, 0.10115814208984375, 9362.0, 28835.0, 32767.0, 9362.0, 0.0, 7.973554611206055, -0.31463754177093506, -0.4049011766910553, 0.061179518699645996, 0.0050460988563997096, 0.32853299721625717, 0.812190221277329
246072, -0.32994502782821655, -1.3182770013809204, 2.552344799041748, -0.02110118232667446, -0.0067001329734921455, 1.0007028579711914, 0.09294891357421875, 9362.0, 28835.0, 32767.0, 9362.0, 0.0, 7.973554611206055, -0.3145853281021118, -0.40495818853378296, 0.061173297464847565, -0.018905566007040468, 0.3371300156396728, 0.8760228127560439
246082, -0.3305802047252655, -1.3197758197784424, 2.551790237426758, -0.02137594297528267, -0.0055205682292580605, 1.0021631717681885, 0.09294891357421875, 9362.0, 28835.0, 32767.0, 9362.0, 0.0, 7.973554611206055, -0.3141494691371918, -0.40490370988845825, 0.0606488361954689, 0.1547394450976966, 0.5495858091884713, 1.1022922375553266
246092, -0.3302268385887146, -1.3207812309265137, 2.5524051189422607, -0.021744530647993088, -0.005538064055144787, 1.0013043880462646, 0.06561279296875, 9362.0, 28835.0, 32767.0, 9362.0, 0.0, 7.973554611206055, -0.31445789337158203, -0.4050027132034302, 0.061347249895334244, 0.045506094297214035, 0.23412322232681504, 0.8819458376437702
246102, -0.3287087678909302, -1.3217825889587402, 2.5536513328552246, -0.022402150556445122, -0.005488147493451834, 0.9996688365936279, 0.06561279296875, 9362.0, 28835.0, 32767.0, 9362.0, 0.0, 7.973554611206055, -0.31464213132858276, -0.40490448474884033, 0.06116489693522453, -0.007809380424157908, 0.325313572396567, 0.8078585243673961
246112, -0.3294208347797394, -1.3201401233673096, 2.553013563156128, -0.02137165516614914, -0.007390392478555441, 1.001380443572998, 0.05741119384765625, 9362.0, 28835.0, 32767.0, 9362.0, 0.0, 7.973554611206055, -0.31465858221054077, -0.4048788845539093, 0.06147385761141777, 0.027048654048529998, 0.29534826357561883, 0.9086416959984509
246122, -0.32750338315963745, -1.321986436843872, 2.5529532432556152, -0.021364843472838402, -0.00698474794626236, 1.0025826692581177, 0.05741119384765625, 9362.0, 28835.0, 32767.0, 9362.0, 0.0, 7.973554611206055, -0.3147299885749817, -0.40483343601226807, 0.06144651025533676, 0.0429378833990992, 0.28354015389419374, 0.851082840929387
246132, -0.326849102973938, -1.3210537433624268, 2.554135799407959, -0.0217144675552845, -0.004549794364720583, 1.0018761157989502, 0.03826904296875, 9362.0, 28835.0, 32767.0, 9362.0, 0.0, 7.973554611206055, -0.31446102261543274, -0.40499645471572876, 0.061329033225774765, 0.04539349135845398, 0.22465941643429232, 0.8771051565979243
246142, -0.327813059091568, -1.3200819492340088, 2.5539467334747314, -0.019897446036338806, -0.005754267331212759, 1.0028998851776123, 0.03826904296875, 9362.0, 28835.0, 32767.0, 9362.0, 0.0, 7.973554611206055, -0.3146469295024872, -0.40481340885162354, 0.061326466500759125, 0.026517034800272052, 0.31195050539054137, 0.8092307558133407
246152, -0.3277490735054016, -1.3197928667068481, 2.5526649951934814, -0.022206418216228485, -0.0041752466931939125, 1.0029823780059814, 0.02459716796875, 9362.0, 28835.0, 32767.0, 9362.0, 0.0, 7.973554611206055, -0.31453844904899597, -0.4048073887825012, 0.06133054941892624, 0.023313777826701524, 0.328148632606883, 0.8484713392468605
246162, -0.3278234302997589, -1.3191620111465454, 2.55100417137146, -0.021539529785513878, -0.005486739799380302, 1.0008701086044312, 0.02459716796875, 9362.0, 28835.0, 32767.0, 9362.0, 0.0, 7.973554611206055, -0.31454819440841675, -0.4048383831977844, 0.06142258644104004, 0.07981219376557905, 0.20808212190894437, 0.8168025094622826
246172, -0.32729676365852356, -1.3191936016082764, 2.550981283187866, -0.022075418382883072, -0.005439612548798323, 0.9992856979370117, -0.02187347412109375, 9362.0, 28835.0, 32767.0, 9362.0, 0.0, 7.973554611206055, -0.3146613538265228, -0.4048701524734497, 0.061487700790166855, 0.022313644015309463, 0.29197956749061404, 0.9198784903787534
246182, -0.3279522955417633, -1.3208295106887817, 2.5510153770446777, -0.022790946066379547, -0.005091473925858736, 1.0010238885879517, -0.02187347412109375, 9362.0, 28835.0, 32767.0, 9362.0, 0.0, 7.973554611206055, -0.31463655829429626, -0.4048916697502136, 0.06117255613207817, 0.001028627103437427, 0.3286767682356526, 0.8099065504085744
246192, -0.32815903425216675, -1.3215978145599365, 2.5500094890594482, -0.022947300225496292, -0.004935227334499359, 1.0023193359375, -0.0765533447265625, 9362.0, 28835.0, 32767.0, 9362.0, 0.0, 7.973554611206055, -0.31465381383895874, -0.404873251914978, 0.061480700969696045, 0.029327220374792077, 0.29751210875573975, 0.9144350578905
246202, -0.32798680663108826, -1.3207132816314697, 2.549574136734009, -0.02296491526067257, -0.00531752360984683, 1.0027235746383667, -0.0765533447265625, 9362.0, 28835.0, 32767.0, 9362.0, 0.0, 7.973554611206055, -0.3146403729915619, -0.4048885405063629, 0.061168622225522995, -0.0056626830049364175, 0.33563933668787627, 0.8175549623271609
246212, -0.32609838247299194, -1.3198734521865845, 2.5497725009918213, -0.021827924996614456, -0.0043759578838944435, 1.0003504753112793, -0.0820159912109375, 9362.0, 28835.0, 32767.0, 9362.0, 0.0, 7.973554611206055, -0.31466612219810486, -0.4048738181591034, 0.06147230416536331, 0.02581544851348326, 0.29468764114946566, 0.916938424117884
246222, -0.32619351148605347, -1.3200448751449585, 2.5496976375579834, -0.019959386438131332, -0.005202330648899078, 1.0004905462265015, -0.0820159912109375, 9362.0, 28835.0, 32767.0, 9362.0, 0.0, 7.973554611206055, -0.3146248459815979, -0.4046047329902649, 0.06157790869474411, 0.16003109171289018, 0.22069587475789376, 0.7912840042618954
246232, -0.3267193138599396, -1.3175971508026123, 2.5485126972198486, -0.021912842988967896, -0.006488219369202852, 1.000666856765747, -0.06561279296875, 9362.0, 28835.0, 32767.0, 9362.0, 0.0, 7.973554611206055, -0.3148277699947357, -0.40426281094551086, 0.06133018806576729, 0.0747686681516381, -0.029405440139044003, 1.0153769034107674
246242, -0.3277048170566559, -1.3187341690063477, 2.5473806858062744, -0.02213064581155777, -0.007282455917447805, 1.0004009008407593, -0.06561279296875, 9362.0, 28835.0, 32767.0, 9362.0, 0.0, 7.973554611206055, -0.3145587742328644, -0.40479302406311035, 0.061330147087574005, 0.020687920284466563, 0.3280592951893766, 0.8492653182133859
246252, -0.3285845220088959, -1.3184164762496948, 2.546915054321289, -0.021447811275720596, -0.0038272948004305363, 1.0023984909057617, -0.12303924560546875, 9362.0, 28835.0, 32767.0, 9362.0, 0.0, 7.973554611206055, -0.3146275281906128, -0.40489351749420166, 0.061171356588602066, -0.003243282964969587, 0.33255178111556916, 0.8151120945971178
246262, -0.3272016942501068, -1.3216066360473633, 2.5460832118988037, -0.02414702996611595, -0.002716146409511566, 1.0038795471191406, -0.12303924560546875, 9362.0, 28835.0, 32767.0, 9362.0, 0.0, 7.973554611206055, -0.3142431676387787, -0.4058097004890442, 0.06000392138957977, -0.022904368857584893, 0.19668514401669768, 0.4597249149345157
246272, -0.3260243237018585, -1.3182801008224487, 2.54559326171875, -0.02252374403178692, -0.004214676097035408, 1.0012197494506836, -0.0628814697265625, 9362.0, 28835.0, 32767.0, 9362.0, 0.0, 7.973554611206055, -0.31467321515083313, -0.404575377702713, 0.06119641661643982, 0.017960412051548594, 0.047881111159057355, 1.1499292586176828
246282, -0.32785946130752563, -1.3187514543533325, 2.545544385910034, -0.019863126799464226, -0.004521103575825691, 1.0013902187347412, -0.0628814697265625, 9362.0, 28835.0, 32767.0, 9362.0, 0.0, 7.973554611206055, -0.31465449929237366, -0.4048978388309479, 0.061170052736997604, -0.0005083380590498414, 0.3277005460579687, 0.8087654289447566
246292, -0.3278830945491791, -1.3156965970993042, 2.5459768772125244, -0.02165583334863186, -0.006775389425456524, 1.002116322517395, -0.04100799560546875, 9362.0, 28835.0, 32767.0, 9362.0, 0.0, 7.973554611206055, -0.31468096375465393, -0.40460899472236633, 0.06146077439188957, 0.146267776954262, 0.24676109325756101, 0.7323044463399774
246302, -0.32747742533683777, -1.3165733814239502, 2.5448801517486572, -0.021758105605840683, -0.005784316919744015, 1.0013427734375, -0.04100799560546875, 9362.0, 28835.0, 32767.0, 9362.0, 0.0, 7.973554611206055, -0.3141568899154663, -0.4048178195953369, 0.0610538013279438, 0.21964138122521973, 0.40507664056156045, 1.0767347973815302
246312, -0.32636338472366333, -1.3172215223312378, 2.544868230819702, -0.022334832698106766, -0.004855893552303314, 1.0017324686050415, -0.01367950439453125, 9362.0, 28835.0, 32767.0, 9362.0, 0.0, 7.973554611206055, -0.3141777515411377, -0.40585634112358093, 0.06001974269747734, -0.04858990648960629, 0.19756207380959268, 0.5222509596623504
246322, -0.32761871814727783, -1.3179707527160645, 2.5437211990356445, -0.022396111860871315, -0.006361338309943676, 1.0017815828323364, -0.01367950439453125, 9362.0, 28835.0, 32767.0, 9362.0, 0.0, 7.973554611206055, -0.31431084871292114, -0.40482965111732483, 0.06103901565074921, 0.23052260486252432, 0.5107916129237822, 1.1347197450665782
246332, -0.32481202483177185, -1.3167515993118286, 2.544739246368408, -0.01994771882891655, -0.004744182340800762, 0.9994109869003296, 0.019134521484375, 9362.0, 28835.0, 32767.0, 9362.0, 0.0, 7.973554611206055, -0.3145779073238373, -0.404909610748291, 0.061579059809446335, 0.08293985397372974, 0.19950414113512238, 0.9200500896881435
246342, -0.323973685503006, -1.316837191581726, 2.5431313514709473, -0.02102232724428177, -0.006434830836951733, 0.9995073676109314, 0.019134521484375, 9362.0, 28835.0, 32767.0, 9362.0, 0.0, 7.973554611206055, -0.31452253460884094, -0.4049403667449951, 0.061312101781368256, 0.062431902851525306, 0.2319899806064143, 0.8092858424471946
246352, -0.32270172238349915, -1.3176259994506836, 2.5419464111328125, -0.023499870672822, -0.004346015863120556, 1.0016953945159912, 0.06561279296875, 9362.0, 28835.0, 32767.0, 9362.0, 0.0, 7.973554611206055, -0.3146223723888397, -0.40487581491470337, 0.0615479052066803, 0.10540568484133968, 0.19156509704055225, 0.8527610069819249
246362, -0.3232553005218506, -1.3174432516098022, 2.5415821075439453, -0.020544473081827164, -0.005455260630697012, 1.001192331314087, 0.06561279296875, 9362.0, 28835.0, 32767.0, 9362.0, 0.0, 7.973554611206055, -0.31459715962409973, -0.40484821796417236, 0.06132816895842552, 0.022123632862250137, 0.32133415966038115, 0.8767340499102201
246372, -0.3234880566596985, -1.31696617603302, 2.542200803756714, -0.02060355432331562, -0.005437892396003008, 1.0031553506851196, 0.0218658447265625, 9362.0, 28835.0, 32767.0, 9362.0, 0.0, 7.973554611206055, -0.31463584303855896, -0.40487048029899597, 0.061563633382320404, 0.10489012640458809, 0.19202192431950493, 0.847400619467175
246382, -0.32387763261795044, -1.3147536516189575, 2.5425379276275635, -0.02102421596646309, -0.005415565799921751, 1.0043952465057373, 0.0218658447265625, 9362.0, 28835.0, 32767.0, 9362.0, 0.0, 7.973554611206055, -0.3146532475948334, -0.40489378571510315, 0.06116099655628204, 0.005529355207639299, 0.3250043587011078, 0.8145395213593413
246392, -0.32259076833724976, -1.312451958656311, 2.5420002937316895, -0.02098747156560421, -0.006915085483342409, 1.00307297706604, -0.02187347412109375, 9362.0, 28835.0, 32767.0, 9362.0, 0.0, 7.973554611206055, -0.31458309292793274, -0.40495648980140686, 0.061166249215602875, -0.020875395724982905, 0.33782428061610403, 0.8837146326305402
246402, -0.3220553398132324, -1.313579797744751, 2.541551113128662, -0.019820664077997208, -0.006811303552240133, 1.003929615020752, -0.02187347412109375, 9362.0, 28835.0, 32767.0, 9362.0, 0.0, 7.973554611206055, -0.31455162167549133, -0.4048004746437073, 0.061340201646089554, 0.024433922263969635, 0.32226978137055085, 0.8424094269221278
246412, -0.3210775554180145, -1.3152307271957397, 2.540771961212158, -0.02218559756875038, -0.003907067701220512, 1.0021061897277832, 0.0, 9362.0, 28835.0, 32767.0, 9362.0, 0.0, 7.973554611206055, -0.31416088342666626, -0.40490901470184326, 0.060607198625802994, 0.16318229310538562, 0.5669767040107558, 1.1074811339492423
246422, -0.3213059902191162, -1.314555287361145, 2.540942907333374, -0.021412238478660583, -0.004499223083257675, 1.0021815299987793, 0.0, 9362.0, 28835.0, 32767.0, 9362.0, 0.0, 7.973554611206055, -0.3145708441734314, -0.40492182970046997, 0.061566997319459915, 0.08403727783259758, 0.19849989743616447, 0.9103208194335183
246432, -0.32054540514945984, -1.3148967027664185, 2.5392823219299316, -0.022742176428437233, -0.006771610118448734, 1.0010712146759033, -0.00820159912109375, 9362.0, 28835.0, 32767.0, 9362.0, 0.0, 7.973554611206055, -0.3146539330482483, -0.4048886299133301, 0.061455465853214264, 0.026159893001959568, 0.30250432057104604, 0.911096373856062
246442, -0.32128477096557617, -1.313859224319458, 2.5390796661376953, -0.022916337475180626, -0.006949042435735464, 1.0026088953018188, -0.00820159912109375, 9362.0, 28835.0, 32767.0, 9362.0, 0.0, 7.973554611206055, -0.31474095582962036, -0.4045517146587372, 0.06136506795883179, 0.09654892744607513, 0.31827464563531294, 1.0303281761218577
246452, -0.32073718309402466, -1.3138084411621094, 2.5390474796295166, -0.022062353789806366, -0.0055389804765582085, 1.0032885074615479, 0.01093292236328125, 9362.0, 28835.0, 32767.0, 9362.0, 0.0, 7.973554611206055, -0.31431326270103455, -0.40483853220939636, 0.06103204935789108, 0.23041363703680673, 0.5160573296117548, 1.1246978863743649
246462, -0.3196447491645813, -1.3143484592437744, 2.539872169494629, -0.02380833402276039, -0.004051628522574902, 1.0021302700042725, 0.01093292236328125, 9362.0, 28835.0, 32767.0, 9362.0, 0.0, 7.973554611206055, -0.3141510486602783, -0.4049152731895447, 0.06059513986110687, 0.16220842509294833, 0.5540150046817018, 1.1001198048943492
246472, -0.32061606645584106, -1.3158398866653442, 2.5397238731384277, -0.02481098100543022, -0.005769222974777222, 1.0025161504745483, 0.02459716796875, 9362.0, 28835.0, 32767.0, 9362.0, 0.0, 7.973554611206055, -0.314660906791687, -0.40488362312316895, 0.06146874278783798, 0.029005402282157998, 0.29627172264946466, 0.9136709221200909
246482, -0.3218803107738495, -1.3156605958938599, 2.538923740386963, -0.024468377232551575, -0.006136603187769651, 1.000871181488037, 0.02459716796875, 9362.0, 28835.0, 32767.0, 9362.0, 0.0, 7.973554611206055, -0.3146500587463379, -0.4048828184604645, 0.0614403560757637, 0.025412604224291962, 0.2865075031204469, 0.9091650551764802
246492, -0.3226781189441681, -1.3169525861740112, 2.5376596450805664, -0.021155651658773422, -0.0058298902586102486, 0.9979417324066162, 0.0218658447265625, 9362.0, 28835.0, 32767.0, 9362.0, 0.0, 7.973554611206055, -0.3145360052585602, -0.404816597700119, 0.061321988701820374, 0.018186326675932854, 0.31705643375264003, 0.8409578526937732
246502, -0.3231251537799835, -1.3171242475509644, 2.537653684616089, -0.019796889275312424, -0.007408981677144766, 0.9982961416244507, 0.0218658447265625, 9362.0, 28835.0, 32767.0, 9362.0, 0.0, 7.973554611206055, -0.31447795033454895, -0.4050212800502777, 0.06131947413086891, 0.04326309954287498, 0.2265180675165368, 0.8772980442091748
246512, -0.32211849093437195, -1.3168931007385254, 2.537766695022583, -0.019492842257022858, -0.005809720605611801, 1.002190351486206, -0.00820159912109375, 9362.0, 28835.0, 32767.0, 9362.0, 0.0, 7.973554611206055, -0.3137606680393219, -0.40578192472457886, 0.05948259308934212, 0.21098646282860897, 0.45669720027905214, 0.8148212200798153
246522, -0.3216399848461151, -1.3184384107589722, 2.5368812084198, -0.02075466513633728, -0.004400262609124184, 1.0035457611083984, -0.00820159912109375, 9362.0, 28835.0, 32767.0, 9362.0, 0.0, 7.973554611206055, -0.31443703174591064, -0.40484651923179626, 0.061430782079696655, 0.07915017157604325, 0.22326538170381127, 0.8439573859802104
246532, -0.3216229975223541, -1.3200901746749878, 2.536954164505005, -0.02306767739355564, -0.006159808021038771, 1.000079870223999, -0.03554534912109375, 9362.0, 28835.0, 32767.0, 9362.0, 0.0, 7.973554611206055, -0.3145969808101654, -0.4048510193824768, 0.06131276115775108, 0.011035387581531017, 0.3227881481575139, 0.8733067687364516
246542, -0.32165268063545227, -1.320377230644226, 2.536872625350952, -0.022233089432120323, -0.0053588273003697395, 1.000564694404602, -0.03554534912109375, 9362.0, 28835.0, 32767.0, 9362.0, 0.0, 7.973554611206055, -0.3145971894264221, -0.404850572347641, 0.06132848188281059, 0.015681593138220463, 0.31557433148844893, 0.8764957327906547
246552, -0.32149335741996765, -1.3205446004867554, 2.5353429317474365, -0.02228631265461445, -0.006272034253925085, 1.0010234117507935, -0.02187347412109375, 9362.0, 28835.0, 32767.0, 9362.0, 0.0, 7.973554611206055, -0.3147275447845459, -0.40482422709465027, 0.0614510104060173, 0.043933701639223, 0.27861158704993727, 0.8570887519529881
246562, -0.3212614953517914, -1.3203482627868652, 2.5341556072235107, -0.02108805999159813, -0.006679918617010117, 0.9997045993804932, -0.02187347412109375, 9362.0, 28835.0, 32767.0, 9362.0, 0.0, 7.973554611206055, -0.31457728147506714, -0.40491005778312683, 0.06154359132051468, 0.08971526452264267, 0.2009313654690743, 0.915212429848162
