timeTick, roll, pitch, yaw, accX, accY, accZ, baro, m1, m2, m3, m4, thrust, vbat, otX0, otY0, otZ0, otRoll0, otPitch0, otYaw0
113471, -0.34411466121673584, -1.5861071348190308, 0.5471091270446777, 0, 0, 0, 0, 0, 0, 0, 0, 0, 0, -0.18345510959625244, -0.352674275636673, 0.05841518193483353, 0.031557468210623676, -0.02132870863329117, 0.01957798881020017
113481, -0.3437280058860779, -1.5876202583312988, 0.5452031493186951, -0.026976462453603745, -0.005769412033259869, 1.0016107559204102, 0.8721542358398438, 9362.0, 28835.0, 32767.0, 9362.0, 0.0, 8.33057975769043, -0.18339179456233978, -0.35271310806274414, 0.05845983326435089, 0.07384723885829599, -0.0668025459015098, 0.0071243846567688816
113491, -0.3445664644241333, -1.5863468647003174, 0.5435740351676941, -0.028396274894475937, -0.005729247350245714, 1.0003955364227295, 0.8721542358398438, 9362.0, 28835.0, 32767.0, 9362.0, 0.0, 8.33057975769043, -0.1834479123353958, -0.35268113017082214, 0.05840674415230751, 0.03637982615956442, -0.020140406176835768, 0.0008721391855093449
113501, -0.3453134596347809, -1.5853919982910156, 0.5435276627540588, -0.025383057072758675, -0.004899117164313793, 0.9986470937728882, 0.91864013671875, 9362.0, 28835.0, 32767.0, 9362.0, 0.0, 8.33057975769043, -0.1834370493888855, -0.3526814579963684, 0.058435529470443726, 0.031517365304350016, -0.017921204264041535, -0.0017918776206905347
113511, -0.3448188006877899, -1.5856350660324097, 0.5437431931495667, -0.02722650021314621, -0.005238664802163839, 0.9985036253929138, 0.91864013671875, 9362.0, 28835.0, 32767.0, 9362.0, 0.0, 8.33057975769043, -0.1834683120250702, -0.3526994585990906, 0.05839420109987259, 0.024778010190823166, -0.006923054481575264, -0.0015690249622262553
113521, -0.34526321291923523, -1.5855213403701782, 0.5436801910400391, -0.028882870450615883, -0.004760015290230513, 0.9996947050094604, 0.9295730590820312, 9362.0, 28835.0, 32767.0, 9362.0, 0.0, 8.33057975769043, -0.183426633477211, -0.35274016857147217, 0.05845050886273384, 0.06296318316149375, -0.06043705003705213, 0.0014651657074358309
113531, -0.3442194163799286, -1.5842597484588623, 0.5436589121818542, -0.030588138848543167, -0.004570248536765575, 0.999583899974823, 0.9295730590820312, 9362.0, 28835.0, 32767.0, 9362.0, 0.0, 8.33057975769043, -0.18339353799819946, -0.3527316749095917, 0.058485791087150574, 0.0714524793341933, -0.06409231195442544, -0.0073149740616767
113541, -0.3435225188732147, -1.5828096866607666, 0.5434591770172119, -0.028453057631850243, -0.004107612185180187, 0.999936580657959, 0.8584823608398438, 9362.0, 28835.0, 32767.0, 9362.0, 0.0, 8.33057975769043, -0.18345241248607635, -0.35269466042518616, 0.058435022830963135, 0.043187649445494705, -0.018963252801654562, -0.006876610927174206
113551, -0.3444110155105591, -1.5830445289611816, 0.5434547066688538, -0.02877676486968994, -0.005986939650028944, 0.9999019503593445, 0.8584823608398438, 9362.0, 28835.0, 32767.0, 9362.0, 0.0, 8.33057975769043, -0.18326880037784576, -0.3527351915836334, 0.05855535715818405, 0.08186865593174598, 0.059329021297656936, -0.09812289222392191
113561, -0.34453848004341125, -1.5824460983276367, 0.5440608859062195, -0.027247929945588112, -0.0046990010887384415, 1.0005221366882324, 0.8065338134765625, 9362.0, 28835.0, 32767.0, 9362.0, 0.0, 8.33057975769043, -0.18328744173049927, -0.3527785837650299, 0.058537598699331284, 0.0495278424265204, 0.0706768078470077, -0.11028312892593335
113571, -0.34559446573257446, -1.5837916135787964, 0.5431159734725952, -0.028301194310188293, -0.008562929928302765, 1.0014305114746094, 0.8065338134765625, 9362.0, 28835.0, 32767.0, 9362.0, 0.0, 8.33057975769043, -0.18341439962387085, -0.35272279381752014, 0.05843731015920639, 0.06638215434120968, -0.06043767507978259, 0.022878574144758402
113581, -0.3467399775981903, -1.5805567502975464, 0.5437262654304504, -0.027949294075369835, -0.0071688066236674786, 1.0001919269561768, 0.9323043823242188, 9362.0, 28835.0, 32767.0, 9362.0, 0.0, 8.33057975769043, -0.18339292705059052, -0.35272130370140076, 0.0584724098443985, 0.0690838598735903, -0.05794782093869344, -0.002362323520367956
113591, -0.3471488058567047, -1.582800030708313, 0.5435141324996948, -0.026622077450156212, -0.005772738251835108, 1.0001760721206665, 0.9323043823242188, 9362.0, 28835.0, 32767.0, 9362.0, 0.0, 8.33057975769043, -0.1833900660276413, -0.35271042585372925, 0.05847141519188881, 0.07653397872428344, -0.06444624490674755, 0.00229886009404723
113601, -0.34666261076927185, -1.5826555490493774, 0.5438985228538513, -0.026085030287504196, -0.003085843753069639, 1.0024518966674805, 1.0061187744140625, 9362.0, 28835.0, 32767.0, 9362.0, 0.0, 8.33057975769043, -0.18344563245773315, -0.3527422249317169, 0.05846637487411499, 0.053529881639417076, -0.05891885945831632, -0.003601421099750995
113611, -0.3466939330101013, -1.5837732553482056, 0.5439949035644531, -0.027884721755981445, -0.003564043203368783, 1.0015631914138794, 1.0061187744140625, 9362.0, 28835.0, 32767.0, 9362.0, 0.0, 8.33057975769043, -0.18346305191516876, -0.3527057468891144, 0.058366890996694565, 0.03055445546952389, -0.019122848855403163, 0.008504463039649104
113621, -0.34634488821029663, -1.5839054584503174, 0.5444310903549194, -0.02872510626912117, -0.004710432607680559, 1.0000452995300293, 1.0416641235351562, 9362.0, 28835.0, 32767.0, 9362.0, 0.0, 8.33057975769043, -0.18341870605945587, -0.3527258336544037, 0.05842692404985428, 0.06133740983772884, -0.052009494533734824, 0.011664593015235192
113631, -0.3458712697029114, -1.583531379699707, 0.5446291565895081, -0.029112981632351875, -0.004605263937264681, 0.99981290102005, 1.0416641235351562, 9362.0, 28835.0, 32767.0, 9362.0, 0.0, 8.33057975769043, -0.1833992451429367, -0.35270678997039795, 0.05847931653261185, 0.06930094758729392, -0.06449504140829276, 0.0022977753086768755
113641, -0.34578174352645874, -1.582861065864563, 0.5440624356269836, -0.028120696544647217, -0.004525352269411087, 1.0006147623062134, 1.11822509765625, 9362.0, 28835.0, 32767.0, 9362.0, 0.0, 8.33057975769043, -0.18341945111751556, -0.35272184014320374, 0.05843191221356392, 0.059314022861295605, -0.06056082539734575, 0.002627305188979391
113651, -0.34594541788101196, -1.5819268226623535, 0.5443443655967712, -0.026428189128637314, -0.0063390969298779964, 1.0002888441085815, 1.11822509765625, 9362.0, 28835.0, 32767.0, 9362.0, 0.0, 8.33057975769043, -0.1833995282649994, -0.3527326285839081, 0.05846630036830902, 0.07200363519026626, -0.06607269933812177, -0.011482948316538727
113661, -0.3479112684726715, -1.5820064544677734, 0.5438641309738159, -0.027470126748085022, -0.005825994070619345, 1.0002715587615967, 1.0471343994140625, 9362.0, 28835.0, 32767.0, 9362.0, 0.0, 8.33057975769043, -0.18346527218818665, -0.3527016043663025, 0.05838054418563843, 0.027412432363551623, -0.01101349642783589, 0.008351540480512147
113671, -0.34933510422706604, -1.580254077911377, 0.5433588624000549, -0.027098599821329117, -0.0058899009600281715, 0.9999682903289795, 1.0471343994140625, 9362.0, 28835.0, 32767.0, 9362.0, 0.0, 8.33057975769043, -0.1834627389907837, -0.352695494890213, 0.05837070196866989, 0.032068198433966924, -0.02172155901075712, 0.007781190684220304
113681, -0.3478926420211792, -1.580657958984375, 0.543621301651001, -0.027373209595680237, -0.005774099845439196, 0.9994890093803406, 1.0115966796875, 9362.0, 28835.0, 32767.0, 9362.0, 0.0, 8.33057975769043, -0.18345990777015686, -0.35270386934280396, 0.05835724249482155, 0.02821190685654106, -0.01476069246359657, 0.010132366688197161
113691, -0.348494291305542, -1.5800676345825195, 0.543190598487854, -0.028131559491157532, -0.004765348508954048, 1.0003188848495483, 1.0115966796875, 9362.0, 28835.0, 32767.0, 9362.0, 0.0, 8.33057975769043, -0.18344315886497498, -0.35268476605415344, 0.05840257927775383, 0.027465462759019132, -0.022296662410070667, 0.0024612075518202626
113701, -0.347723126411438, -1.579245686531067, 0.5435675978660583, -0.027849722653627396, -0.005387458018958569, 1.0003881454467773, 1.0115966796875, 9362.0, 28835.0, 32767.0, 9362.0, 0.0, 8.33057975769043, -0.18343397974967957, -0.35273563861846924, 0.0584229901432991, 0.06897207422759737, -0.0653000296071582, 0.0038402454880284193
113711, -0.3474161624908447, -1.5792585611343384, 0.5432354211807251, -0.02805435284972191, -0.004717578180134296, 1.00099778175354, 1.0115966796875, 9362.0, 28835.0, 32767.0, 9362.0, 0.0, 8.33057975769043, -0.18347519636154175, -0.35269540548324585, 0.05839924141764641, 0.025710986715070733, -0.015467158876532494, 0.0036617807187436955
113721, -0.3478984534740448, -1.5790541172027588, 0.5435706973075867, -0.026416057720780373, -0.00432848883792758, 0.9996135830879211, 0.8858261108398438, 9362.0, 28835.0, 32767.0, 9362.0, 0.0, 8.33057975769043, -0.18340438604354858, -0.3527204692363739, 0.05841941013932228, 0.06737623210901936, -0.06299047964265014, 0.007807439358705235
113731, -0.347224622964859, -1.5797998905181885, 0.5427249670028687, -0.026988308876752853, -0.005450102500617504, 0.9985356330871582, 0.8858261108398438, 9362.0, 28835.0, 32767.0, 9362.0, 0.0, 8.33057975769043, -0.1834409236907959, -0.3526894152164459, 0.05839381366968155, 0.04126024523420801, -0.024393497635230688, 0.009912067959521155
113741, -0.34731531143188477, -1.5815256834030151, 0.5419625043869019, -0.028908705338835716, -0.004227000754326582, 1.0009241104125977, 0.817474365234375, 9362.0, 28835.0, 32767.0, 9362.0, 0.0, 8.33057975769043, -0.18346041440963745, -0.3526995778083801, 0.058379728347063065, 0.03342891518085358, -0.01578122303808982, 0.0026830757027876432
113751, -0.3477311134338379, -1.5819854736328125, 0.5411515235900879, -0.028845839202404022, -0.005836112424731255, 1.003112554550171, 0.817474365234375, 9362.0, 28835.0, 32767.0, 9362.0, 0.0, 8.33057975769043, -0.18320590257644653, -0.35279709100723267, 0.05860166624188423, 0.09959370506947182, 0.030748199287188527, -0.10667804500784042
113761, -0.3481636345386505, -1.5791380405426025, 0.5418357849121094, -0.025632163509726524, -0.005981563590466976, 1.002219796180725, 0.896759033203125, 9362.0, 28835.0, 32767.0, 9362.0, 0.0, 8.33057975769043, -0.1834459751844406, -0.3526748716831207, 0.058373551815748215, 0.0237767045851849, -0.010332708698001625, 0.019706366712782083
113771, -0.34798917174339294, -1.5782396793365479, 0.5419782400131226, -0.02638445422053337, -0.006233404390513897, 1.0003125667572021, 0.896759033203125, 9362.0, 28835.0, 32767.0, 9362.0, 0.0, 8.33057975769043, -0.18338583409786224, -0.3527164161205292, 0.058487869799137115, 0.0707927758007117, -0.060157179667328364, -0.0028272984373122058
113781, -0.3486817479133606, -1.5788015127182007, 0.5412872433662415, -0.02773253060877323, -0.006123860366642475, 0.9997142553329468, 0.8366165161132812, 9362.0, 28835.0, 32767.0, 9362.0, 0.0, 8.33057975769043, -0.18343868851661682, -0.3526899516582489, 0.05840273201465607, 0.033196563903557956, -0.01481931467824893, -0.0034723216266379794
113791, -0.34861865639686584, -1.5778781175613403, 0.541089653968811, -0.027851741760969162, -0.004206651821732521, 1.0020115375518799, 0.8366165161132812, 9362.0, 28835.0, 32767.0, 9362.0, 0.0, 8.33057975769043, -0.1834174245595932, -0.35271599888801575, 0.05845032259821892, 0.06115575669973735, -0.06760263648823184, 0.007566779291529228
113801, -0.34914401173591614, -1.5766462087631226, 0.5419573783874512, -0.026511624455451965, -0.006546063348650932, 1.0008978843688965, 0.7737350463867188, 9362.0, 28835.0, 32767.0, 9362.0, 0.0, 8.33057975769043, -0.18340159952640533, -0.35270437598228455, 0.05843590572476387, 0.06740456423355441, -0.0552463768975997, 0.01871126192141789
113811, -0.3489733636379242, -1.5756797790527344, 0.5416328310966492, -0.02857927232980728, -0.0024418728426098824, 1.001637578010559, 0.7737350463867188, 9362.0, 28835.0, 32767.0, 9362.0, 0.0, 8.33057975769043, -0.18338218331336975, -0.3527052700519562, 0.0584787055850029, 0.06855518340850598, -0.06460655826165862, 0.00590276214236354
113821, -0.3492203652858734, -1.575279712677002, 0.5412402153015137, -0.02758054807782173, -0.004334769211709499, 1.0023317337036133, 0.8202056884765625, 9362.0, 28835.0, 32767.0, 9362.0, 0.0, 8.33057975769043, -0.1834249347448349, -0.35266557335853577, 0.0584135539829731, 0.03555251936390009, -0.021267818375491743, 0.0060295812418735125
113831, -0.3492491543292999, -1.574031949043274, 0.5418654680252075, -0.02800465188920498, -0.005282348953187466, 0.9995237588882446, 0.8202056884765625, 9362.0, 28835.0, 32767.0, 9362.0, 0.0, 8.33057975769043, -0.18341182172298431, -0.3527105152606964, 0.05843877047300339, 0.06781733961732751, -0.058127239647319584, 0.010617284271012797
113841, -0.3489310145378113, -1.5755952596664429, 0.5407592058181763, -0.02622915990650654, -0.004802003037184477, 0.9990979433059692, 0.9213714599609375, 9362.0, 28835.0, 32767.0, 9362.0, 0.0, 8.33057975769043, -0.18337906897068024, -0.35269680619239807, 0.05845053493976593, 0.06971863670765951, -0.06672467931218762, 0.007809004236136417
113851, -0.3490498960018158, -1.5767546892166138, 0.539825439453125, -0.02600071206688881, -0.005866223946213722, 0.9997045397758484, 0.9213714599609375, 9362.0, 28835.0, 32767.0, 9362.0, 0.0, 8.33057975769043, -0.18340419232845306, -0.35271844267845154, 0.05843980610370636, 0.06295251214138471, -0.056560802886707506, 0.012164234907200203
113861, -0.349199116230011, -1.5745121240615845, 0.5408077836036682, -0.027210738509893417, -0.0054470086470246315, 1.0005862712860107, 0.9405059814453125, 9362.0, 28835.0, 32767.0, 9362.0, 0.0, 8.33057975769043, -0.18342508375644684, -0.35265570878982544, 0.05843041464686394, 0.041161912896215666, -0.021834060372896147, 0.014496066243113472
113871, -0.34886911511421204, -1.5740488767623901, 0.5416197776794434, -0.027566222473978996, -0.006021086126565933, 1.0008188486099243, 0.9405059814453125, 9362.0, 28835.0, 32767.0, 9362.0, 0.0, 8.33057975769043, -0.1834489405155182, -0.35268262028694153, 0.05837824568152428, 0.03087102439913392, -0.012870197398854089, 0.012924373258858268
113881, -0.3479730188846588, -1.5736850500106812, 0.5410788059234619, -0.027621779590845108, -0.003592733759433031, 1.002249836921692, 1.0362014770507812, 9362.0, 28835.0, 32767.0, 9362.0, 0.0, 8.33057975769043, -0.1834322065114975, -0.35267385840415955, 0.05841001868247986, 0.03194613920409381, -0.021019836966502226, 0.014606475910194632
113891, -0.34873270988464355, -1.5719715356826782, 0.5414257645606995, -0.026092976331710815, -0.006110872142016888, 1.0009121894836426, 1.0362014770507812, 9362.0, 28835.0, 32767.0, 9362.0, 0.0, 8.33057975769043, -0.18338274955749512, -0.35272154211997986, 0.05847775563597679, 0.06690859616025219, -0.056432070580456184, 0.0005228569180602553
113901, -0.34868162870407104, -1.5726944208145142, 0.5414289236068726, -0.027468934655189514, -0.004824537318199873, 1.000345230102539, 1.0006561279296875, 9362.0, 28835.0, 32767.0, 9362.0, 0.0, 8.33057975769043, -0.18338976800441742, -0.35272058844566345, 0.058476801961660385, 0.07542382159431617, -0.07067160730096589, 0.0044392148378390945
113911, -0.347877562046051, -1.5715038776397705, 0.541312575340271, -0.027031701058149338, -0.005305261351168156, 1.0028079748153687, 1.0006561279296875, 9362.0, 28835.0, 32767.0, 9362.0, 0.0, 8.33057975769043, -0.18346728384494781, -0.35268640518188477, 0.05839306488633156, 0.033581692441931675, -0.007007343511418185, 0.014765671684237099
113921, -0.34733983874320984, -1.5709317922592163, 0.541247546672821, -0.02819143608212471, -0.004996664356440306, 1.0013575553894043, 0.9651107788085938, 9362.0, 28835.0, 32767.0, 9362.0, 0.0, 8.33057975769043, -0.18341690301895142, -0.35270941257476807, 0.05845515429973602, 0.06371487047792879, -0.05833195032613503, 0.009654488419166402
113931, -0.3472793996334076, -1.5701991319656372, 0.5412354469299316, -0.02856999635696411, -0.006585073657333851, 1.0008220672607422, 0.9651107788085938, 9362.0, 28835.0, 32767.0, 9362.0, 0.0, 8.310744285583496, -0.18341733515262604, -0.35271966457366943, 0.05843682959675789, 0.059459475067576234, -0.06287539764011285, 0.001923371400535201
113941, -0.3454826772212982, -1.5707714557647705, 0.5416393280029297, -0.0273476280272007, -0.006346915848553181, 1.002386450767517, 1.030731201171875, 9362.0, 28835.0, 32767.0, 9362.0, 0.0, 8.33057975769043, -0.18344734609127045, -0.35268157720565796, 0.05842391029000282, 0.040230891005585266, -0.015116928102173688, 0.008940534351454685
113951, -0.3446035385131836, -1.5715986490249634, 0.5410024523735046, -0.027556579560041428, -0.0043628280982375145, 1.0004396438598633, 1.030731201171875, 9362.0, 28835.0, 32767.0, 9362.0, 0.0, 8.33057975769043, -0.18339179456233978, -0.3527124226093292, 0.05848202481865883, 0.07315969053496615, -0.06435927709375733, -0.007312684269423193
113961, -0.34454724192619324, -1.571162223815918, 0.5412473082542419, -0.027235785499215126, -0.006339879706501961, 0.9992054104804993, 1.0443954467773438, 9362.0, 28835.0, 32767.0, 9362.0, 0.0, 8.33057975769043, -0.18343795835971832, -0.3526870310306549, 0.058427225798368454, 0.03616342950929298, -0.02709520422237688, -0.004394386749797606
113971, -0.3444332182407379, -1.5711127519607544, 0.539914071559906, -0.029817823320627213, -0.005738490726798773, 1.0001869201660156, 1.0443954467773438, 9362.0, 28835.0, 32767.0, 9362.0, 0.0, 8.33057975769043, -0.18345209956169128, -0.35269472002983093, 0.058371249586343765, 0.01793460538629905, -0.01588953005853, 0.010555278025860263
113981, -0.3449106514453888, -1.5702781677246094, 0.5402048230171204, -0.029504068195819855, -0.006289768498390913, 1.0005030632019043, 0.9787826538085938, 9362.0, 28835.0, 32767.0, 9362.0, 0.0, 8.33057975769043, -0.18340426683425903, -0.3527182340621948, 0.05845608189702034, 0.07105264793776138, -0.05635769043774985, 0.010666262570828285
113991, -0.3448128402233124, -1.5687071084976196, 0.5398383140563965, -0.02906115911900997, -0.006345427129417658, 1.0019114017486572, 0.9787826538085938, 9362.0, 28835.0, 32767.0, 9362.0, 0.0, 8.33057975769043, -0.1834675669670105, -0.35270389914512634, 0.058385804295539856, 0.025515876480248913, -0.011233463302886548, -0.005466652665040106
114001, -0.3480052351951599, -1.5686360597610474, 0.5393125414848328, -0.029123103246092796, -0.006167859770357609, 1.0021898746490479, 1.0580673217773438, 9362.0, 28835.0, 32767.0, 9362.0, 0.0, 8.33057975769043, -0.18343603610992432, -0.35267171263694763, 0.058429520577192307, 0.036708796202736704, -0.018285275010697433, -0.0026807304240258913
114011, -0.34729430079460144, -1.5678439140319824, 0.5409179925918579, -0.029650498181581497, -0.006232410669326782, 0.9986000657081604, 1.0580673217773438, 9362.0, 28835.0, 32767.0, 9362.0, 0.0, 8.33057975769043, -0.18321481347084045, -0.3527630865573883, 0.058626141399145126, 0.11141759122003547, 0.019085815020019936, -0.12514402350017811
114021, -0.34834611415863037, -1.5686237812042236, 0.5403525829315186, -0.027535878121852875, -0.006480555981397629, 1.0007257461547852, 0.9787826538085938, 9362.0, 28835.0, 32767.0, 9362.0, 0.0, 8.33057975769043, -0.18344341218471527, -0.3526760935783386, 0.05843063443899155, 0.03466536589095531, -0.025579347721617296, 0.0001006911832079151
114031, -0.3486925959587097, -1.5691171884536743, 0.5402260422706604, -0.027119729667901993, -0.006510088220238686, 1.0003430843353271, 0.9787826538085938, 9362.0, 28835.0, 32767.0, 9362.0, 0.0, 8.33057975769043, -0.1834467649459839, -0.3526691198348999, 0.058402203023433685, 0.033132390865625784, -0.015618511413094893, 0.023435844010046253
114041, -0.34810736775398254, -1.5690703392028809, 0.5412876009941101, -0.02777138538658619, -0.005306999199092388, 1.000491976737976, 1.0143280029296875, 9362.0, 28835.0, 32767.0, 9362.0, 0.0, 8.33057975769043, -0.18345221877098083, -0.3526758849620819, 0.058375053107738495, 0.04297990000200823, -0.017543440029527346, 0.018240274031049757
114051, -0.34774234890937805, -1.5688893795013428, 0.5407317280769348, -0.029467478394508362, -0.005003413185477257, 1.0018725395202637, 1.0143280029296875, 9362.0, 28835.0, 32767.0, 9362.0, 0.0, 8.33057975769043, -0.1834373027086258, -0.3526749908924103, 0.05843685567378998, 0.042622519231972855, -0.014917529867091162, 0.005684854415010086
114061, -0.34850364923477173, -1.5644314289093018, 0.5401672124862671, -0.02876138687133789, -0.004814321640878916, 0.9973491430282593, 1.0088653564453125, 9362.0, 28835.0, 32767.0, 9362.0, 0.0, 8.33057975769043, -0.1833915114402771, -0.35271385312080383, 0.05846201255917549, 0.06616641989177126, -0.06344470048608741, -0.003070092784982419
114071, -0.34982672333717346, -1.5635056495666504, 0.5404812693595886, -0.023765161633491516, -0.0059898244217038155, 0.9981949329376221, 1.0088653564453125, 9362.0, 28835.0, 32767.0, 9362.0, 0.0, 8.33057975769043, -0.18345336616039276, -0.3526793420314789, 0.05838291347026825, 0.03226657540122506, -0.013970143725600792, 0.014571689911123816
114081, -0.35037761926651, -1.5644519329071045, 0.5397207140922546, -0.025922978296875954, -0.005653593689203262, 0.9993054270744324, 1.137359619140625, 9362.0, 28835.0, 32767.0, 9362.0, 0.0, 8.33057975769043, -0.1834113895893097, -0.35271286964416504, 0.05841405689716339, 0.06990872218618314, -0.060292222617221114, 0.009404253265152589
114091, -0.3505827784538269, -1.5652656555175781, 0.5391747355461121, -0.026930097490549088, -0.0032984085846692324, 1.0003992319107056, 1.137359619140625, 9362.0, 28835.0, 32767.0, 9362.0, 0.0, 8.33057975769043, -0.18341508507728577, -0.3527165353298187, 0.058442965149879456, 0.07111109374122619, -0.0596330018714184, 0.015673289902078204
114101, -0.35118362307548523, -1.5643043518066406, 0.538114070892334, -0.027531202882528305, -0.004306751303374767, 1.0018212795257568, 1.09088134765625, 9362.0, 28835.0, 32767.0, 9362.0, 0.0, 8.33057975769043, -0.18340957164764404, -0.35269978642463684, 0.05841997638344765, 0.06502574088677272, -0.0630766308205466, 0.017182271535518163
114111, -0.35075971484184265, -1.5653551816940308, 0.5376903414726257, -0.02761761099100113, -0.00535579863935709, 1.000115156173706, 1.09088134765625, 9362.0, 28835.0, 32767.0, 9362.0, 0.0, 8.33057975769043, -0.183405801653862, -0.35265520215034485, 0.058424562215805054, 0.04320102098954721, -0.018826916267329352, 0.013806962271977738
114121, -0.350529283285141, -1.5687321424484253, 0.5375828742980957, -0.02808847650885582, -0.004192049615085125, 0.9998507499694824, 1.1346206665039062, 9362.0, 28835.0, 32767.0, 9362.0, 0.0, 8.33057975769043, -0.1834562122821808, -0.35267722606658936, 0.05838441103696823, 0.024185401223724683, -0.018852804579182703, 0.019269107083965523
114131, -0.35068774223327637, -1.5690044164657593, 0.536443293094635, -0.027313346043229103, -0.005091140978038311, 1.001272439956665, 1.1346206665039062, 9362.0, 28835.0, 32767.0, 9362.0, 0.0, 8.33057975769043, -0.18345759809017181, -0.3526827096939087, 0.05838344618678093, 0.022680135040985393, -0.013507153221723911, 0.004175694866618707
114141, -0.3509981632232666, -1.5690264701843262, 0.5370227694511414, -0.02776573970913887, -0.0066521670669317245, 1.0014207363128662, 1.1646957397460938, 9362.0, 28835.0, 32767.0, 9362.0, 0.0, 8.33057975769043, -0.18340538442134857, -0.35270777344703674, 0.058437153697013855, 0.06914645940008751, -0.062103163733098654, 0.0134965522454703
114151, -0.3514483869075775, -1.56918203830719, 0.537166178226471, -0.027778755873441696, -0.005615287460386753, 0.9993242025375366, 1.1646957397460938, 9362.0, 28835.0, 32767.0, 9362.0, 0.0, 8.33057975769043, -0.1834695190191269, -0.35269126296043396, 0.05839958041906357, 0.029422887025426198, -0.017428708019309624, 0.003378176135762514
114161, -0.3516254425048828, -1.569171667098999, 0.5369740724563599, -0.026619793847203255, -0.004403299186378717, 0.9985721111297607, 1.0854110717773438, 9362.0, 28835.0, 32767.0, 9362.0, 0.0, 8.33057975769043, -0.18346494436264038, -0.3526931405067444, 0.058367423713207245, 0.022729081441003936, -0.017828762615351934, 0.016975460067617566
114171, -0.35213086009025574, -1.5692901611328125, 0.5355209112167358, -0.027461756020784378, -0.005177045240998268, 1.000452995300293, 1.0854110717773438, 9362.0, 28835.0, 32767.0, 9362.0, 0.0, 8.33057975769043, -0.1834060102701187, -0.3527095913887024, 0.058431241661310196, 0.0653322601609496, -0.05854810250042419, 0.011215948922836973
114181, -0.3513026535511017, -1.5687192678451538, 0.534853458404541, -0.026761168614029884, -0.0036207856610417366, 1.0007398128509521, 1.07720947265625, 9362.0, 28835.0, 32767.0, 9362.0, 0.0, 8.33057975769043, -0.18341132998466492, -0.35274043679237366, 0.05843179672956467, 0.05945671619178458, -0.06306877514819575, 0.005830142060098756
114191, -0.35099393129348755, -1.5668988227844238, 0.5347666144371033, -0.027238285169005394, -0.004834780469536781, 1.0002418756484985, 1.07720947265625, 9362.0, 28835.0, 32767.0, 9362.0, 0.0, 8.33057975769043, -0.1834733486175537, -0.3526953458786011, 0.058409638702869415, 0.03046251913020161, -0.00849446886090277, -0.00023106946972202853
114201, -0.34966525435447693, -1.5667128562927246, 0.5365391969680786, -0.026326891034841537, -0.007260873913764954, 1.000187873840332, 1.0635452270507812, 9362.0, 28835.0, 32767.0, 9362.0, 0.0, 8.33057975769043, -0.18342117965221405, -0.3527204692363739, 0.058431804180145264, 0.058189885670830215, -0.05454711836569004, 0.010124527547491765
114211, -0.3497721254825592, -1.5669306516647339, 0.5365812182426453, -0.027091698721051216, -0.0062994877807796, 1.0027577877044678, 1.0635452270507812, 9362.0, 28835.0, 32767.0, 9362.0, 0.0, 8.33057975769043, -0.1834513247013092, -0.3526886999607086, 0.05842877924442291, 0.034685509655320836, -0.02610853640973687, -0.003086611113595976
114221, -0.35000452399253845, -1.5668704509735107, 0.535983145236969, -0.028228923678398132, -0.004604020155966282, 1.0014921426773071, 1.1346206665039062, 9362.0, 28835.0, 32767.0, 9362.0, 0.0, 8.33057975769043, -0.1834438294172287, -0.35268110036849976, 0.05841057375073433, 0.04001287470968325, -0.024550718710315778, -0.00606780247060571
114231, -0.3504003882408142, -1.5653752088546753, 0.5368525981903076, -0.026822183281183243, -0.003836751449853182, 1.0001405477523804, 1.1346206665039062, 9362.0, 28835.0, 32767.0, 9362.0, 0.0, 8.33057975769043, -0.18344107270240784, -0.3526742160320282, 0.058431267738342285, 0.03660608688132194, -0.025851457319134852, 0.007374322502569365
114241, -0.3502311110496521, -1.5693684816360474, 0.5370532870292664, -0.02700236812233925, -0.005249361507594585, 1.0018455982208252, 1.1318893432617188, 9362.0, 28835.0, 32767.0, 9362.0, 0.0, 8.33057975769043, -0.18344254791736603, -0.3526930809020996, 0.05842343345284462, 0.029959002991596834, -0.020979061899055296, 0.003969685295208089
114251, -0.35056543350219727, -1.5695360898971558, 0.5374645590782166, -0.02701667696237564, -0.00468189874663949, 1.0013329982757568, 1.1318893432617188, 9362.0, 28835.0, 32767.0, 9362.0, 0.0, 8.33057975769043, -0.1834377944469452, -0.3526848554611206, 0.0584084577858448, 0.032147634458194865, -0.018604825316145934, 0.0014128986092369095
114261, -0.35127323865890503, -1.5703485012054443, 0.5381229519844055, -0.025472398847341537, -0.006416776683181524, 1.000093936920166, 1.0061187744140625, 9362.0, 28835.0, 32767.0, 9362.0, 0.0, 8.33057975769043, -0.18346257507801056, -0.3526900112628937, 0.05838453769683838, 0.020921379880705224, -0.013211013656245996, 0.007669597992959044
114271, -0.35300204157829285, -1.5707063674926758, 0.5384007096290588, -0.026288803666830063, -0.006921734195202589, 0.9999459981918335, 1.0061187744140625, 9362.0, 28835.0, 32767.0, 9362.0, 0.0, 8.33057975769043, -0.18343926966190338, -0.3526862859725952, 0.05841783061623573, 0.03493347596556115, -0.01894149797013256, 0.004202475111293147
114281, -0.3533097505569458, -1.571746826171875, 0.5384398102760315, -0.029445195570588112, -0.006404276937246323, 1.0005871057510376, 1.0334625244140625, 9362.0, 28835.0, 32767.0, 9362.0, 0.0, 8.33057975769043, -0.1834677755832672, -0.35270142555236816, 0.058352064341306686, 0.01826809669468313, -0.0185226979818367, 0.0004674764050093423
114291, -0.35339149832725525, -1.5727132558822632, 0.5372247099876404, -0.028455045074224472, -0.007201827596873045, 1.0025811195373535, 1.0334625244140625, 9362.0, 28835.0, 32767.0, 9362.0, 0.0, 8.33057975769043, -0.18342113494873047, -0.3527260422706604, 0.058411840349435806, 0.05930631136522136, -0.0613948220137388, 0.00880820232332607
114301, -0.3532550632953644, -1.573218822479248, 0.5383890867233276, -0.027754023671150208, -0.005450198892503977, 1.0023150444030762, 1.0881423950195312, 9362.0, 28835.0, 32767.0, 9362.0, 0.0, 8.33057975769043, -0.183465838432312, -0.3526904582977295, 0.058376096189022064, 0.03186866676195546, -0.012952579093990835, 0.005831086895838061
114311, -0.35253018140792847, -1.5719900131225586, 0.5387389063835144, -0.02757512964308262, -0.006078029051423073, 1.0003588199615479, 1.0881423950195312, 9362.0, 28835.0, 32767.0, 9362.0, 0.0, 8.33057975769043, -0.18339455127716064, -0.35271596908569336, 0.05847863480448723, 0.06568767958456996, -0.0726757238030018, 0.005468599019940021
114321, -0.3530186116695404, -1.5716173648834229, 0.5395644903182983, -0.028471939265727997, -0.00671774847432971, 0.9995711445808411, 1.0526046752929688, 9362.0, 28835.0, 32767.0, 9362.0, 0.0, 8.33057975769043, -0.18346437811851501, -0.3527083396911621, 0.05839599296450615, 0.021210711888593598, -0.018872118945239436, 0.0018218752737058123
114331, -0.3511908948421478, -1.5706790685653687, 0.5401201248168945, -0.027789274230599403, -0.004795923829078674, 0.999640166759491, 1.0526046752929688, 9362.0, 28835.0, 32767.0, 9362.0, 0.0, 8.33057975769043, -0.18341971933841705, -0.3527210056781769, 0.058423589915037155, 0.06380055545179181, -0.06126642555281592, 0.007990511067985878
114341, -0.35145148634910583, -1.5717527866363525, 0.5400686860084534, -0.029514430090785027, -0.0061374688521027565, 0.9995201826095581, 1.0471343994140625, 9362.0, 28835.0, 32767.0, 9362.0, 0.0, 8.33057975769043, -0.18346013128757477, -0.35270461440086365, 0.05836842954158783, 0.026008304992175147, -0.01531730963620248, 0.0064792267915602005
114351, -0.35025331377983093, -1.5719822645187378, 0.5405025482177734, -0.027406763285398483, -0.004877584520727396, 0.99996417760849, 1.0471343994140625, 9362.0, 28835.0, 32767.0, 9362.0, 0.0, 8.33057975769043, -0.18346574902534485, -0.35268449783325195, 0.058402303606271744, 0.0297129679821638, -0.017700634736769416, 0.007243093127387477
114361, -0.3501710891723633, -1.570194125175476, 0.5411667823791504, -0.027425121515989304, -0.006449076347053051, 0.999848484992981, 1.1127471923828125, 9362.0, 28835.0, 32767.0, 9362.0, 0.0, 8.33057975769043, -0.18347421288490295, -0.3527088761329651, 0.058372192084789276, 0.03150346092855861, -0.02791166605911144, 0.010334941909556044
114371, -0.3504389226436615, -1.5716056823730469, 0.5404262542724609, -0.027512211352586746, -0.007242096122354269, 1.0006787776947021, 1.1127471923828125, 9362.0, 28835.0, 32767.0, 9362.0, 0.0, 8.33057975769043, -0.18322870135307312, -0.3527848422527313, 0.058619674295186996, 0.11805877180038238, 0.00851688310967802, -0.12529638627936657
114381, -0.35029974579811096, -1.573526382446289, 0.5400793552398682, -0.028382597491145134, -0.00689246691763401, 1.001349925994873, 1.1127471923828125, 9362.0, 28835.0, 32767.0, 9362.0, 0.0, 8.33057975769043, -0.1834472268819809, -0.3526971936225891, 0.058403220027685165, 0.032187896877673136, -0.019920507356630424, -0.011746693028639009
114391, -0.34977987408638, -1.5735636949539185, 0.5397622585296631, -0.025437168776988983, -0.0070960549637675285, 1.0012575387954712, 1.1127471923828125, 9362.0, 28835.0, 32767.0, 9362.0, 0.0, 8.33057975769043, -0.1834668070077896, -0.3526913821697235, 0.0583835206925869, 0.029132494070265594, -0.011092707511835442, 0.0025183734892946542
114401, -0.3489702641963959, -1.5752074718475342, 0.5392245054244995, -0.027185577899217606, -0.008169335313141346, 1.0006486177444458, 1.0115966796875, 9362.0, 28835.0, 32767.0, 9362.0, 0.0, 8.33057975769043, -0.18344205617904663, -0.35269951820373535, 0.058409664779901505, 0.031172540090134197, -0.019738622375797377, -0.002599134231696628
114411, -0.35022544860839844, -1.5750330686569214, 0.5383501648902893, -0.02646647021174431, -0.006598200649023056, 1.0015251636505127, 1.0115966796875, 9362.0, 28835.0, 32767.0, 9362.0, 0.0, 8.33057975769043, -0.1834658682346344, -0.35269156098365784, 0.05836205556988716, 0.02903682072160216, -0.019685267264094364, 0.010442639950224049
114421, -0.3512222468852997, -1.5740337371826172, 0.5381831526756287, -0.027061976492404938, -0.005582300014793873, 1.0000512599945068, 1.197509765625, 9362.0, 28835.0, 32767.0, 9362.0, 0.0, 8.33057975769043, -0.18344631791114807, -0.3526920676231384, 0.05839435011148453, 0.035924404061117826, -0.027661033843969562, -0.0008368321594167914
114431, -0.35119542479515076, -1.573894739151001, 0.5392739772796631, -0.026898223906755447, -0.006651692092418671, 1.0018473863601685, 1.197509765625, 9362.0, 28835.0, 32767.0, 9362.0, 0.0, 8.33057975769043, -0.18346914649009705, -0.3526895344257355, 0.05839942768216133, 0.02476818060116001, -0.0161161824234739, 0.0060284274026744245
114441, -0.3512798547744751, -1.5739420652389526, 0.5394799709320068, -0.02670770324766636, -0.007733378559350967, 1.0017601251602173, 1.189300537109375, 9362.0, 28835.0, 32767.0, 9362.0, 0.0, 8.33057975769043, -0.18340055644512177, -0.352703720331192, 0.05848339945077896, 0.06771130024857064, -0.06765570764895301, 0.004644681794104246
114451, -0.3522474467754364, -1.5722460746765137, 0.5384024977684021, -0.026521142572164536, -0.007224416360259056, 0.9997234344482422, 1.189300537109375, 9362.0, 28835.0, 32767.0, 9362.0, 0.0, 8.33057975769043, -0.18338638544082642, -0.3527063727378845, 0.05848372355103493, 0.06723255605722525, -0.0640733460426759, 0.005338621881217611
114461, -0.35155177116394043, -1.5714716911315918, 0.5385332107543945, -0.027090124785900116, -0.006219374015927315, 1.0001928806304932, 1.137359619140625, 9362.0, 28835.0, 32767.0, 9362.0, 0.0, 8.33057975769043, -0.1834758222103119, -0.35268452763557434, 0.058397773653268814, 0.027418856755881578, -0.014706514046480379, 0.014734321704045298
114471, -0.3516886234283447, -1.5734165906906128, 0.5383269786834717, -0.027145862579345703, -0.004939481616020203, 1.0023940801620483, 1.137359619140625, 9362.0, 28835.0, 32767.0, 9362.0, 0.0, 8.33057975769043, -0.1834685355424881, -0.35268357396125793, 0.05838276073336601, 0.029089481531047134, -0.009003055211678657, 0.012564408790632517
114481, -0.35155266523361206, -1.573570966720581, 0.537865936756134, -0.027393223717808723, -0.0051395767368376255, 1.002266764640808, 1.1455612182617188, 9362.0, 28835.0, 32767.0, 9362.0, 0.0, 8.33057975769043, -0.1834106147289276, -0.35271456837654114, 0.058400992304086685, 0.0626267259031733, -0.05538471374180176, 0.017822146063324818
114491, -0.35013145208358765, -1.5759339332580566, 0.5372136831283569, -0.02833087369799614, -0.0052307965233922005, 1.000325322151184, 1.1455612182617188, 9362.0, 28835.0, 32767.0, 9362.0, 0.0, 8.33057975769043, -0.18346944451332092, -0.3526771664619446, 0.058390721678733826, 0.0332506853514649, -0.01394523554321836, 0.020537747261917347
114501, -0.3499242067337036, -1.576629400253296, 0.5364326238632202, -0.02860352024435997, -0.0065200310200452805, 1.0011565685272217, 1.1264190673828125, 9362.0, 28835.0, 32767.0, 9362.0, 0.0, 8.33057975769043, -0.18341588973999023, -0.35271984338760376, 0.05845174938440323, 0.051019685159621284, -0.05817858395144526, 0.01443958983509375
114511, -0.34884124994277954, -1.574648141860962, 0.535254955291748, -0.029079552739858627, -0.004057936370372772, 1.001039981842041, 1.1264190673828125, 9362.0, 28835.0, 32767.0, 9362.0, 0.0, 8.33057975769043, -0.18347439169883728, -0.3526933491230011, 0.05835939571261406, 0.032879216789791145, -0.014829496396913555, 0.008048536392904893
114521, -0.3493730127811432, -1.5741164684295654, 0.5354108810424805, -0.0274222269654274, -0.0052743954584002495, 1.000484585762024, 1.1783676147460938, 9362.0, 28835.0, 32767.0, 9362.0, 0.0, 8.33057975769043, -0.18346574902534485, -0.3527050018310547, 0.05838940292596817, 0.022664728186765053, -0.0073884653763229835, 0.002891977543625584
114531, -0.3485299348831177, -1.573164939880371, 0.5361019372940063, -0.02641606330871582, -0.006259225774556398, 1.0003247261047363, 1.1783676147460938, 9362.0, 28835.0, 32767.0, 9362.0, 0.0, 8.33057975769043, -0.183462455868721, -0.35268211364746094, 0.058399464935064316, 0.03725339844145186, -0.014569502746780927, 0.018838051032817656
114541, -0.3483773171901703, -1.5733494758605957, 0.5356737971305847, -0.027553679421544075, -0.005896029993891716, 0.9997293949127197, 1.1510238647460938, 9362.0, 28835.0, 32767.0, 9362.0, 0.0, 8.33057975769043, -0.18345528841018677, -0.35268640518188477, 0.05843021720647812, 0.03600229575502362, -0.02325078526678226, -0.001596177671343285
114551, -0.349579781293869, -1.5736136436462402, 0.5357227325439453, -0.026769498363137245, -0.006154155358672142, 0.9998443126678467, 1.1510238647460938, 9362.0, 28835.0, 32767.0, 9362.0, 0.0, 8.33057975769043, -0.18344180285930634, -0.3526853621006012, 0.05840592831373215, 0.03264188418802364, -0.019822386783630463, -0.0013255805469204916
114561, -0.3499758541584015, -1.5719401836395264, 0.5361757278442383, -0.026415212079882622, -0.0042230417020618916, 1.001725435256958, 1.2193756103515625, 9362.0, 28835.0, 32767.0, 9362.0, 0.0, 8.33057975769043, -0.1834535002708435, -0.3526729643344879, 0.05840803310275078, 0.03824449781813128, -0.023553806703574764, 0.00014069562047159813
114571, -0.34949371218681335, -1.5724605321884155, 0.5367370247840881, -0.02773106098175049, -0.005129897501319647, 1.0021426677703857, 1.2193756103515625, 9362.0, 28835.0, 32767.0, 9362.0, 0.0, 8.33057975769043, -0.18343602120876312, -0.35266879200935364, 0.05840864032506943, 0.035229835082180146, -0.011744068386008166, 0.008206276791661679
114581, -0.3493522107601166, -1.5712690353393555, 0.536693274974823, -0.02617766335606575, -0.003881503827869892, 1.0008692741394043, 1.2603836059570312, 9362.0, 28835.0, 32767.0, 9362.0, 0.0, 8.33057975769043, -0.1834339201450348, -0.35272297263145447, 0.058450110256671906, 0.06064610641855573, -0.05954598247814147, 0.007055664013391311
114591, -0.3506471514701843, -1.5688811540603638, 0.5375066995620728, -0.026407085359096527, -0.007528270129114389, 1.000282645225525, 1.2603836059570312, 9362.0, 28835.0, 32767.0, 9362.0, 0.0, 8.33057975769043, -0.1834711730480194, -0.35270261764526367, 0.05837549269199371, 0.029053037964659443, -0.01622857041405723, 0.0050997443337062074
114601, -0.35054710507392883, -1.5691864490509033, 0.5365248322486877, -0.025459911674261093, -0.0065268659964203835, 0.9989650249481201, 1.3670120239257812, 9362.0, 28835.0, 32767.0, 9362.0, 0.0, 8.33057975769043, -0.1834738850593567, -0.35269877314567566, 0.05837677791714668, 0.026294070254153604, -0.01606998346136379, 0.005875399587231941
114611, -0.3493031859397888, -1.5677862167358398, 0.5363783836364746, -0.025559354573488235, -0.003147075418382883, 0.997460663318634, 1.3670120239257812, 9362.0, 28835.0, 32767.0, 9362.0, 0.0, 8.33057975769043, -0.18340030312538147, -0.3527128994464874, 0.05847916752099991, 0.05666648583079002, -0.059380320870076275, -0.008702852594726883
114621, -0.34858548641204834, -1.5676378011703491, 0.5362277626991272, -0.02752544917166233, -0.002891106065362692, 1.0008220672607422, 1.3123321533203125, 9362.0, 28835.0, 32767.0, 9362.0, 0.0, 8.33057975769043, -0.18340006470680237, -0.3527308404445648, 0.058453597128391266, 0.06710708917093228, -0.06702548067696057, -0.0022624796628898623
114631, -0.34757423400878906, -1.5682417154312134, 0.5371344685554504, -0.02735716849565506, -0.005603916477411985, 1.000033974647522, 1.3123321533203125, 9362.0, 28835.0, 32767.0, 9362.0, 0.0, 8.33057975769043, -0.18347148597240448, -0.35269489884376526, 0.0583781823515892, 0.026017048086482156, -0.012194297274504606, 0.007498488300256691
114641, -0.3475759029388428, -1.5670195817947388, 0.5376245975494385, -0.027052052319049835, -0.005879669450223446, 1.0016541481018066, 1.3861541748046875, 9362.0, 28835.0, 32767.0, 9362.0, 0.0, 8.33057975769043, -0.183420792222023, -0.352724552154541, 0.058414921164512634, 0.05879787310001585, -0.06387344652628713, 0.015904625688682707
114651, -0.34725603461265564, -1.5660569667816162, 0.5379917621612549, -0.02866833657026291, -0.004966054577380419, 1.0029157400131226, 1.3861541748046875, 9362.0, 28835.0, 32767.0, 9362.0, 0.0, 8.33057975769043, -0.1834573745727539, -0.3526879549026489, 0.05836603045463562, 0.029149800464377876, -0.005248735700121188, 0.01152887788031316
114661, -0.3478071987628937, -1.5660816431045532, 0.5367321372032166, -0.02776903472840786, -0.005951779428869486, 1.0000646114349365, 1.3150634765625, 9362.0, 28835.0, 32767.0, 9362.0, 0.0, 8.33057975769043, -0.18345052003860474, -0.35268908739089966, 0.05842970311641693, 0.038009257442576626, -0.021184379830827993, -0.0008488475333197957
114671, -0.3485950231552124, -1.5655407905578613, 0.5355719923973083, -0.02802920527756214, -0.0054802726954221725, 1.0022287368774414, 1.3150634765625, 9362.0, 28835.0, 32767.0, 9362.0, 0.0, 8.33057975769043, -0.1834685206413269, -0.3527025878429413, 0.05837121605873108, 0.032694327211249284, -0.016956670882365188, 0.008114549423327464
114681, -0.3486047685146332, -1.5658226013183594, 0.5360621213912964, -0.02830379828810692, -0.007164295297116041, 1.00171959400177, 1.2849960327148438, 9362.0, 28835.0, 32767.0, 9362.0, 0.0, 8.33057975769043, -0.1834709346294403, -0.35269618034362793, 0.05837538093328476, 0.02485541013656389, -0.018899395874115044, 0.012811896788754105
114691, -0.34806790947914124, -1.564146876335144, 0.5376144051551819, -0.027869204059243202, -0.005932583939284086, 1.000068187713623, 1.2849960327148438, 9362.0, 28835.0, 32767.0, 9362.0, 0.0, 8.33057975769043, -0.1832343190908432, -0.3527733385562897, 0.058558158576488495, 0.10908996117429716, 0.017088935512589387, -0.11470035151434832
114701, -0.34881556034088135, -1.5647023916244507, 0.5366358757019043, -0.025931743904948235, -0.004736963659524918, 1.0008503198623657, 1.3068695068359375, 9362.0, 28835.0, 32767.0, 9362.0, 0.0, 8.33057975769043, -0.183219775557518, -0.35279157757759094, 0.0585976243019104, 0.11452397752270739, 0.018104685037002355, -0.12477479528276066
114711, -0.3495814800262451, -1.565782070159912, 0.5367089509963989, -0.029552822932600975, -0.0069384025409817696, 1.0017979145050049, 1.3068695068359375, 9362.0, 28835.0, 32767.0, 9362.0, 0.0, 8.33057975769043, -0.18344014883041382, -0.35268962383270264, 0.05841141194105148, 0.03113531911901006, -0.01960526171100696, 0.009410942637932225
114721, -0.34951040148735046, -1.5654723644256592, 0.5370873212814331, -0.028672920539975166, -0.005441447254270315, 1.0005601644515991, 1.2685928344726562, 9362.0, 28835.0, 32767.0, 9362.0, 0.0, 8.33057975769043, -0.18342317640781403, -0.35271888971328735, 0.05845190957188606, 0.06244168520056614, -0.047368401265771354, 0.0111509445799698
114731, -0.34933358430862427, -1.5679658651351929, 0.5356630682945251, -0.02722170576453209, -0.004395830910652876, 1.0015865564346313, 1.2685928344726562, 9362.0, 28835.0, 32767.0, 9362.0, 0.0, 8.33057975769043, -0.18345341086387634, -0.35269948840141296, 0.05835402011871338, 0.023341304824546563, -0.010904478981416332, 0.007718453923719647
114741, -0.3500947058200836, -1.5679270029067993, 0.5372962355613708, -0.02749643474817276, -0.004859691485762596, 1.0031135082244873, 1.295928955078125, 9362.0, 28835.0, 32767.0, 9362.0, 0.0, 8.33057975769043, -0.18347182869911194, -0.3526906371116638, 0.05834506079554558, 0.027737312727716165, -0.019422702410480497, 0.008628657757123976
114751, -0.34895867109298706, -1.5684038400650024, 0.5378071069717407, -0.027934003621339798, -0.0032495269551873207, 1.0005104541778564, 1.295928955078125, 9362.0, 28835.0, 32767.0, 9362.0, 0.0, 8.33057975769043, -0.18340621888637543, -0.35272347927093506, 0.058458954095840454, 0.06387528145003674, -0.06828037220270744, -0.0038279642421738835
114761, -0.34955695271492004, -1.5696748495101929, 0.5368732213973999, -0.02733207494020462, -0.0034179051872342825, 1.0011662244796753, 1.1947708129882812, 9362.0, 28835.0, 32767.0, 9362.0, 0.0, 8.33057975769043, -0.18338926136493683, -0.35271358489990234, 0.05845174938440323, 0.06724378524397388, -0.06618316701860749, -0.0038799671619344713
114771, -0.35001862049102783, -1.5710736513137817, 0.5376362204551697, -0.028347278013825417, -0.005017668940126896, 1.0013408660888672, 1.1947708129882812, 9362.0, 28835.0, 32767.0, 9362.0, 0.0, 8.33057975769043, -0.1834220439195633, -0.3527223765850067, 0.05843967944383621, 0.06553875321497665, -0.06155665459337456, 0.00527868451743511
114781, -0.3496057987213135, -1.5694899559020996, 0.5375093221664429, -0.02708505094051361, -0.006977804005146027, 1.0003284215927124, 1.1510238647460938, 9362.0, 28835.0, 32767.0, 9362.0, 0.0, 8.33057975769043, -0.1834801733493805, -0.35268887877464294, 0.05837080627679825, 0.030475135858175108, -0.014436356016773289, 0.002592486370451398
114791, -0.347293883562088, -1.5690089464187622, 0.5374873876571655, -0.028507769107818604, -0.005534452386200428, 1.0024019479751587, 1.1510238647460938, 9362.0, 28835.0, 32767.0, 9362.0, 0.0, 8.33057975769043, -0.18344877660274506, -0.3526839315891266, 0.058410778641700745, 0.03397035525687237, -0.011202897255685684, 0.004689019585286732
114801, -0.3462718725204468, -1.5698964595794678, 0.5373032093048096, -0.028994282707571983, -0.0034904200583696365, 1.0017237663269043, 1.1209564208984375, 9362.0, 28835.0, 32767.0, 9362.0, 0.0, 8.33057975769043, -0.18346628546714783, -0.35269400477409363, 0.05838175490498543, 0.02637144336447439, -0.015292802066426248, 0.0062230517982515415
114811, -0.34789377450942993, -1.569898247718811, 0.5388673543930054, -0.027552522718906403, -0.004827222786843777, 1.001617431640625, 1.1209564208984375, 9362.0, 28835.0, 32767.0, 9362.0, 0.0, 8.310744285583496, -0.18347977101802826, -0.35269632935523987, 0.058390259742736816, 0.02094638053680787, -0.017966513449607646, 0.0010519800979748777
114821, -0.34645554423332214, -1.571752905845642, 0.5387394428253174, -0.027684319764375687, -0.006099936552345753, 1.0012329816818237, 1.197509765625, 9362.0, 28835.0, 32767.0, 9362.0, 0.0, 8.33057975769043, -0.18346908688545227, -0.35268157720565796, 0.0583733394742012, 0.024367776631110488, -0.024063093224896193, 0.009957567660943509
114831, -0.34750473499298096, -1.5727884769439697, 0.5381199717521667, -0.02860177308320999, -0.004775643348693848, 1.0010541677474976, 1.197509765625, 9362.0, 28835.0, 32767.0, 9362.0, 0.0, 8.33057975769043, -0.18341685831546783, -0.35271450877189636, 0.058458197861909866, 0.05736630076834641, -0.05471956132635114, 0.00871610701997708
114841, -0.3492933511734009, -1.5713191032409668, 0.5379753708839417, -0.029913198202848434, -0.005501142702996731, 1.002046823501587, 1.1947708129882812, 9362.0, 28835.0, 32767.0, 9362.0, 0.0, 8.33057975769043, -0.18339018523693085, -0.35271310806274414, 0.058474235236644745, 0.0730122203790287, -0.06945645118645416, -0.0034209321763698764
114851, -0.3486018180847168, -1.5709062814712524, 0.5380801558494568, -0.02656880021095276, -0.004500788636505604, 1.0010714530944824, 1.1947708129882812, 9362.0, 28835.0, 32767.0, 9362.0, 0.0, 8.33057975769043, -0.18343256413936615, -0.3526669442653656, 0.05842237547039986, 0.0333332347723777, -0.015260359909319732, 0.011156090022729248
114861, -0.35005131363868713, -1.571942925453186, 0.5382853746414185, -0.0263943113386631, -0.006294517777860165, 1.0007880926132202, 1.2275848388671875, 9362.0, 28835.0, 32767.0, 9362.0, 0.0, 8.33057975769043, -0.18343858420848846, -0.3526709973812103, 0.058404065668582916, 0.03366316181929339, -0.008122887593515316, 0.006612651971436294
114871, -0.3497336506843567, -1.5707117319107056, 0.5368785858154297, -0.02772505395114422, -0.006857647560536861, 1.000661015510559, 1.2275848388671875, 9362.0, 28835.0, 32767.0, 9362.0, 0.0, 8.33057975769043, -0.18345846235752106, -0.352670282125473, 0.058405470103025436, 0.024891114996600065, -0.02636523905619015, 0.011742200748234238
114881, -0.34915584325790405, -1.5708447694778442, 0.537280261516571, -0.026370074599981308, -0.005705390125513077, 1.0003094673156738, 1.20843505859375, 9362.0, 28835.0, 32767.0, 9362.0, 0.0, 8.33057975769043, -0.1834292858839035, -0.352717787027359, 0.058454591780900955, 0.058682944254879174, -0.07040172277757506, 0.004089384222124514
114891, -0.34904149174690247, -1.5721278190612793, 0.5372555255889893, -0.028244461864233017, -0.005006677471101284, 0.9999088644981384, 1.20843505859375, 9362.0, 28835.0, 32767.0, 9362.0, 0.0, 8.33057975769043, -0.18344418704509735, -0.3526777923107147, 0.05843617767095566, 0.04139013852552616, -0.025628945203436615, 0.0020961490441743207
114901, -0.34831178188323975, -1.5720851421356201, 0.5365183353424072, -0.028844645246863365, -0.004317239858210087, 1.0004879236221313, 1.23577880859375, 9362.0, 28835.0, 32767.0, 9362.0, 0.0, 8.33057975769043, -0.183400496840477, -0.35270342230796814, 0.05848423391580582, 0.07266151110685401, -0.0653071690678928, -0.004706433810154477
114911, -0.3482772409915924, -1.5725611448287964, 0.5365923047065735, -0.028346223756670952, -0.0070831049233675, 1.00180184841156, 1.23577880859375, 9362.0, 28835.0, 32767.0, 9362.0, 0.0, 8.33057975769043, -0.18325980007648468, -0.3527270555496216, 0.0585569404065609, 0.07018906472431381, 0.05520165645208408, -0.10507095944744536
114921, -0.3475934863090515, -1.5734444856643677, 0.5361020565032959, -0.027820225805044174, -0.005959698930382729, 1.0016093254089355, 1.3123321533203125, 9362.0, 28835.0, 32767.0, 9362.0, 0.0, 8.33057975769043, -0.18340672552585602, -0.35271507501602173, 0.05845086649060249, 0.060378621475994654, -0.052610030294118815, 0.00871150987577766
114931, -0.3463059365749359, -1.572188377380371, 0.5347588658332825, -0.027924489229917526, -0.0049513885751366615, 1.000304937362671, 1.3123321533203125, 9362.0, 28835.0, 32767.0, 9362.0, 0.0, 8.33057975769043, -0.18346291780471802, -0.3526931703090668, 0.05837101489305496, 0.023041347192175713, -0.0111312932675105, 0.010071438683491418
114941, -0.3462408483028412, -1.5739507675170898, 0.5340575575828552, -0.02738785557448864, -0.004882584325969219, 1.0011457204818726, 1.30413818359375, 9362.0, 28835.0, 32767.0, 9362.0, 0.0, 8.33057975769043, -0.18342916667461395, -0.35273808240890503, 0.05845146253705025, 0.05623172990460136, -0.06464403284888931, 0.002815614649139587
114951, -0.3467033803462982, -1.5749903917312622, 0.5329118967056274, -0.02686876431107521, -0.005530162248760462, 1.0020947456359863, 1.30413818359375, 9362.0, 28835.0, 32767.0, 9362.0, 0.0, 8.33057975769043, -0.18339323997497559, -0.3527089059352875, 0.0584905743598938, 0.0715266586499195, -0.054998958231919914, 0.00040877904378191544
114961, -0.3471544086933136, -1.5744812488555908, 0.5329582095146179, -0.02645757421851158, -0.006679549813270569, 1.001824140548706, 1.3177947998046875, 9362.0, 28835.0, 32767.0, 9362.0, 0.0, 8.33057975769043, -0.18346096575260162, -0.35268306732177734, 0.05840159207582474, 0.03199518939482006, -0.012840901027942664, 0.016870396905482875
114971, -0.34694841504096985, -1.5748393535614014, 0.5316855311393738, -0.027254801243543625, -0.004320212639868259, 1.00076162815094, 1.3177947998046875, 9362.0, 28835.0, 32767.0, 9362.0, 0.0, 8.33057975769043, -0.18341925740242004, -0.3527113199234009, 0.0584571398794651, 0.058327180105816834, -0.05775546947785415, 0.007008261925058884
114981, -0.34727156162261963, -1.5749918222427368, 0.5333704948425293, -0.028898976743221283, -0.005058640614151955, 0.9993221759796143, 1.309600830078125, 9362.0, 28835.0, 32767.0, 9362.0, 0.0, 8.33057975769043, -0.183396577835083, -0.3527178466320038, 0.058477096259593964, 0.07071664778150327, -0.06353928897593164, -0.006469837552614878
114991, -0.3478549122810364, -1.5756717920303345, 0.5336611866950989, -0.02739758975803852, -0.005542785860598087, 1.0000171661376953, 1.309600830078125, 9362.0, 28835.0, 32767.0, 9362.0, 0.0, 8.33057975769043, -0.1834423840045929, -0.35268691182136536, 0.05841687321662903, 0.034614836046250215, -0.025756602071794532, 0.002961644407023263
115001, -0.3486405909061432, -1.5754079818725586, 0.5342995524406433, -0.027960937470197678, -0.005634281784296036, 1.0012258291244507, 1.2467193603515625, 9362.0, 28835.0, 32767.0, 9362.0, 0.0, 8.33057975769043, -0.1834762990474701, -0.3526840806007385, 0.05841067433357239, 0.027666271067149046, -0.01122164601338227, 0.002146239399982806
115011, -0.3499135673046112, -1.5733217000961304, 0.5329217910766602, -0.027374189347028732, -0.006612044759094715, 1.0006083250045776, 1.2467193603515625, 9362.0, 28835.0, 32767.0, 9362.0, 0.0, 8.33057975769043, -0.1833977997303009, -0.35271623730659485, 0.05847606807947159, 0.0679257997673008, -0.062307139235571185, -0.005936512011221258
115021, -0.3491527736186981, -1.572770357131958, 0.5331289768218994, -0.028563516214489937, -0.0077698202803730965, 1.0004361867904663, 1.2467193603515625, 9362.0, 28835.0, 32767.0, 9362.0, 0.0, 8.33057975769043, -0.1834557056427002, -0.35267409682273865, 0.05844147503376007, 0.03295114323841401, -0.015788644795122764, 0.00864418694823525
115031, -0.34926745295524597, -1.5707576274871826, 0.5337872505187988, -0.027025053277611732, -0.00634298101067543, 0.9996376037597656, 1.2767868041992188, 9362.0, 28835.0, 32767.0, 9362.0, 0.0, 8.33057975769043, -0.1834467053413391, -0.3526884913444519, 0.058421168476343155, 0.036854315407504015, -0.018411141021601907, 0.002345371329920529
115041, -0.3475011885166168, -1.5713139772415161, 0.5333543419837952, -0.02680658921599388, -0.005612341221421957, 0.9978538751602173, 1.2767868041992188, 9362.0, 28835.0, 32767.0, 9362.0, 0.0, 8.33057975769043, -0.18340344727039337, -0.35270750522613525, 0.05849070101976395, 0.07019950481260534, -0.06752271127078302, -0.0027085557111160468
115051, -0.34526681900024414, -1.5721678733825684, 0.5328871607780457, -0.02896277792751789, -0.004847527947276831, 0.9981722235679626, 1.189300537109375, 9362.0, 28835.0, 32767.0, 9362.0, 0.0, 8.33057975769043, -0.1834443211555481, -0.35268139839172363, 0.05844756215810776, 0.031876479176129784, -0.01607113505517077, -0.0023745462259023692
115061, -0.3460303843021393, -1.5736860036849976, 0.531448483467102, -0.027664896100759506, -0.004402038641273975, 1.0020016431808472, 1.1646957397460938, 9362.0, 28835.0, 32767.0, 9362.0, 0.0, 8.33057975769043, -0.1834351271390915, -0.3527234196662903, 0.05847034230828285, 0.054034004485200245, -0.06617293431835947, 0.011779909366296902
115071, -0.34562578797340393, -1.573947787284851, 0.5307466387748718, -0.027127031236886978, -0.006183327175676823, 1.0015995502471924, 1.1646957397460938, 9362.0, 28835.0, 32767.0, 9362.0, 0.0, 8.310744285583496, -0.18345527350902557, -0.35268673300743103, 0.05843884125351906, 0.030045158285438005, -0.02365163914842583, -0.0035681449565411402
115081, -0.34528347849845886, -1.574418067932129, 0.5301645994186401, -0.027629081159830093, -0.006663533393293619, 1.0010915994644165, 1.1646957397460938, 9362.0, 28835.0, 32767.0, 9362.0, 0.0, 8.33057975769043, -0.18347597122192383, -0.3526920676231384, 0.05841495841741562, 0.021170261899456866, -0.016421707799395335, 0.0013783719247531087
115091, -0.34676557779312134, -1.5742614269256592, 0.5296911597251892, -0.02727281115949154, -0.007299516350030899, 1.0023598670959473, 1.2057037353515625, 9362.0, 28835.0, 32767.0, 9362.0, 0.0, 8.33057975769043, -0.18345758318901062, -0.3526822030544281, 0.05843227356672287, 0.034761847591094505, -0.030843407395082068, 0.00129264832824676
115101, -0.34687840938568115, -1.5735505819320679, 0.5294888615608215, -0.028642740100622177, -0.0054428717121481895, 1.0016478300094604, 1.2057037353515625, 9362.0, 28835.0, 32767.0, 9362.0, 0.0, 8.33057975769043, -0.1834505796432495, -0.35269027948379517, 0.058434393256902695, 0.030808508562538955, -0.02195474564490496, -0.004584691394598503
115111, -0.3468855023384094, -1.5735054016113281, 0.5271841883659363, -0.02902449667453766, -0.00653199153020978, 1.0021445751190186, 1.20843505859375, 9362.0, 28835.0, 32767.0, 9362.0, 0.0, 8.33057975769043, -0.18342866003513336, -0.35273435711860657, 0.0584578737616539, 0.0545937312215442, -0.05366824576961449, 0.01004811088964245
115121, -0.34692952036857605, -1.5736266374588013, 0.5270923972129822, -0.027885261923074722, -0.007952945306897163, 0.9994212985038757, 1.20843505859375, 9362.0, 28835.0, 32767.0, 9362.0, 0.0, 8.33057975769043, -0.1834598183631897, -0.35269397497177124, 0.0584128201007843, 0.03879974775682336, -0.01977450423339633, -0.0024723941282083104
115131, -0.3464340567588806, -1.574489712715149, 0.5260048508644104, -0.028151053935289383, -0.005470540840178728, 1.0011615753173828, 1.2385177612304688, 9362.0, 28835.0, 32767.0, 9362.0, 0.0, 8.33057975769043, -0.18345806002616882, -0.3526776432991028, 0.05843696370720863, 0.03595429691169491, -0.03003989922106598, 0.00924462719936152
115141, -0.3468436896800995, -1.5751760005950928, 0.5262139439582825, -0.02812502160668373, -0.004571983125060797, 1.0017015933990479, 1.2385177612304688, 9362.0, 28835.0, 32767.0, 9362.0, 0.0, 8.33057975769043, -0.18342751264572144, -0.352722704410553, 0.05842824652791023, 0.05719781944821464, -0.061364395892582024, 0.009333563761705039
115151, -0.34811723232269287, -1.574341058731079, 0.5264375805854797, -0.028276273980736732, -0.004343482665717602, 1.0021110773086548, 1.2767868041992188, 9362.0, 28835.0, 32767.0, 9362.0, 0.0, 8.33057975769043, -0.18345026671886444, -0.3527122437953949, 0.05844800919294357, 0.02850600912376041, -0.010419130628150697, -0.008783653816863508
115161, -0.34876710176467896, -1.5745748281478882, 0.5264696478843689, -0.027312397956848145, -0.006814270745962858, 1.0011218786239624, 1.2767868041992188, 9362.0, 28835.0, 32767.0, 9362.0, 0.0, 8.33057975769043, -0.18346667289733887, -0.3526953160762787, 0.05838683620095253, 0.023722980307374603, -0.01482025244879992, -0.004749195816012424
115171, -0.3500767946243286, -1.5754958391189575, 0.5253158211708069, -0.027495935559272766, -0.004656897857785225, 1.0016573667526245, 1.3013992309570312, 9362.0, 28835.0, 32767.0, 9362.0, 0.0, 8.310744285583496, -0.18340688943862915, -0.3527050316333771, 0.05845840275287628, 0.07279543756548926, -0.0824540077183542, 0.006787207109002984
115181, -0.34959617257118225, -1.577849268913269, 0.5256057977676392, -0.029546961188316345, -0.005430969409644604, 1.0018880367279053, 1.3013992309570312, 9362.0, 28835.0, 32767.0, 9362.0, 0.0, 8.33057975769043, -0.18342013657093048, -0.3527231514453888, 0.058419644832611084, 0.05996007796814392, -0.06262860884248767, 0.012911298166661643
115191, -0.34956133365631104, -1.5771057605743408, 0.5248126983642578, -0.02666218765079975, -0.006197229027748108, 1.001854419708252, 1.2904586791992188, 9362.0, 28835.0, 32767.0, 9362.0, 0.0, 8.33057975769043, -0.18347471952438354, -0.35270893573760986, 0.05839542672038078, 0.031276466152073086, -0.014908261791674704, 0.0025905490694489433
115201, -0.3497858941555023, -1.5775103569030762, 0.5249624252319336, -0.02690802700817585, -0.00708033936098218, 1.0011743307113647, 1.2904586791992188, 9362.0, 28835.0, 32767.0, 9362.0, 0.0, 8.33057975769043, -0.18347379565238953, -0.352691650390625, 0.05836150050163269, 0.03255506251700891, -0.0237041811190295, 0.017221560667336346
115211, -0.34809252619743347, -1.5765199661254883, 0.52499920129776, -0.02750428020954132, -0.00582478940486908, 1.0017127990722656, 1.2986602783203125, 9362.0, 28835.0, 32767.0, 9362.0, 0.0, 8.33057975769043, -0.18347212672233582, -0.35268905758857727, 0.05840591713786125, 0.02490594510107931, -0.015624931491970528, 0.013165208655183443
