timeTick, roll, pitch, yaw, accX, accY, accZ, baro, m1, m2, m3, m4, thrust, vbat, otX0, otY0, otZ0, otRoll0, otPitch0, otYaw0
52061, 1.4980292320251465, -1.5203365087509155, -1.1233532428741455, 0, 0, 0, 0, 0, 0, 0, 0, 0, 0, -0.06478030979633331, 0.35763928294181824, 0.05886856094002724, 0.018262604937771734, -0.04069818433981709, -0.0031255352977816266
52071, 1.4980124235153198, -1.5221481323242188, -1.1229723691940308, -0.027642235159873962, 0.027162890881299973, 0.9989643096923828, 0.3226165771484375, 9362.0, 28835.0, 32767.0, 9362.0, 0.0, 8.211570739746094, -0.06471279263496399, 0.3575720489025116, 0.05881645530462265, -0.004571669110778026, -0.02324557872037758, -0.00909432491168563
52081, 1.4973491430282593, -1.5213385820388794, -1.1229708194732666, -0.026804063469171524, 0.02652737684547901, 0.999030351638794, 0.3226165771484375, 9362.0, 28835.0, 32767.0, 9362.0, 0.0, 8.211570739746094, -0.06476358324289322, 0.3576467037200928, 0.05883580073714256, 0.0246872428172725, -0.04737971357744186, -0.0047789610200322
52091, 1.4977232217788696, -1.5204962491989136, -1.1232746839523315, -0.025337517261505127, 0.026213545352220535, 0.998664140701294, 0.30074310302734375, 9362.0, 28835.0, 32767.0, 9362.0, 0.0, 8.211570739746094, -0.06478975713253021, 0.35765209794044495, 0.05883922055363655, 0.02256342705613714, -0.052000194371970565, 0.0021154442731356957
52101, 1.4974793195724487, -1.5199520587921143, -1.1231526136398315, -0.025985881686210632, 0.027070971205830574, 0.9992087483406067, 0.30074310302734375, 9362.0, 28835.0, 32767.0, 9362.0, 0.0, 8.211570739746094, -0.06478305906057358, 0.3576405644416809, 0.05883064121007919, 0.028417263134986548, -0.04564459375473007, -0.007410231357239058
52111, 1.4968417882919312, -1.5212492942810059, -1.123965859413147, -0.02585279382765293, 0.02599179558455944, 1.0002570152282715, 0.28433990478515625, 9362.0, 28835.0, 32767.0, 9362.0, 0.0, 8.211570739746094, -0.06477769464254379, 0.3576301336288452, 0.05888265371322632, 0.028265489640971014, -0.04718852879815927, -0.013408417793392132
52121, 1.4970403909683228, -1.5218865871429443, -1.123688817024231, -0.02638467215001583, 0.025096872821450233, 0.9991494417190552, 0.28433990478515625, 9362.0, 28835.0, 32767.0, 9362.0, 0.0, 8.211570739746094, -0.06477798521518707, 0.3576486110687256, 0.05886482074856758, 0.021631486309739892, -0.0463419660156319, -0.003550842241647227
52131, 1.4978405237197876, -1.5212949514389038, -1.124953269958496, -0.025444649159908295, 0.02624872885644436, 1.0014457702636719, 0.27066802978515625, 9362.0, 28835.0, 32767.0, 9362.0, 0.0, 8.211570739746094, -0.06478718668222427, 0.35763081908226013, 0.05885839834809303, 0.02969193091223857, -0.04810054889702542, -0.010614199902790606
52141, 1.498870611190796, -1.5201876163482666, -1.1251612901687622, -0.02588026598095894, 0.026226967573165894, 1.0021779537200928, 0.27066802978515625, 9362.0, 28835.0, 32767.0, 9362.0, 0.0, 8.211570739746094, -0.0647001564502716, 0.35758477449417114, 0.05880763381719589, -0.0009747568330377933, -0.014215272691160408, -0.010007386848895837
52151, 1.4970145225524902, -1.5187429189682007, -1.1261718273162842, -0.02572006918489933, 0.024698596447706223, 1.001664161682129, 0.27339935302734375, 9362.0, 28835.0, 32767.0, 9362.0, 0.0, 8.211570739746094, -0.0646975189447403, 0.3575825095176697, 0.058792613446712494, 0.00956295322997951, -0.023657477980748354, -0.007004198826968473
52161, 1.4982210397720337, -1.5194132328033447, -1.1263706684112549, -0.02531055174767971, 0.02298242412507534, 1.0022095441818237, 0.27339935302734375, 9362.0, 28835.0, 32767.0, 9362.0, 0.0, 8.211570739746094, -0.0647898018360138, 0.357645720243454, 0.0588517040014267, 0.022954527918758925, -0.042606692185898964, -0.0035414509896935058
52171, 1.4982930421829224, -1.5194482803344727, -1.1277167797088623, -0.025450754910707474, 0.025868535041809082, 1.001678228378296, 0.2105255126953125, 9362.0, 28835.0, 32767.0, 9362.0, 0.0, 8.211570739746094, -0.06470097601413727, 0.35758790373802185, 0.058797139674425125, 0.004432769722374457, -0.014868799137815358, -0.0051125448764726975
52181, 1.4986999034881592, -1.5197300910949707, -1.127827525138855, -0.02678123489022255, 0.027038373053073883, 1.0003019571304321, 0.2105255126953125, 9362.0, 28835.0, 32767.0, 9362.0, 0.0, 8.211570739746094, -0.06470207124948502, 0.357583224773407, 0.05881316587328911, -0.010180712691466743, -0.022723329606776588, -0.014517252395730295
52191, 1.4995720386505127, -1.5184311866760254, -1.1273646354675293, -0.026369446888566017, 0.026214230805635452, 0.9997486472129822, 0.259735107421875, 9362.0, 28835.0, 32767.0, 9362.0, 0.0, 8.211570739746094, -0.06478165090084076, 0.3576353192329407, 0.05887395888566971, 0.03045242867052556, -0.04628067202042985, -0.004696955946922582
52201, 1.5003583431243896, -1.5188612937927246, -1.1280168294906616, -0.024529099464416504, 0.024718856438994408, 1.0003230571746826, 0.259735107421875, 9362.0, 28835.0, 32767.0, 9362.0, 0.0, 8.211570739746094, -0.06477895379066467, 0.35764116048812866, 0.058856699615716934, 0.020179567540034925, -0.04877481025599195, -0.006550629745541896
52211, 1.499812364578247, -1.5185803174972534, -1.1280590295791626, -0.024921951815485954, 0.026277389377355576, 0.9987484812736511, 0.1995849609375, 9362.0, 28835.0, 32767.0, 9362.0, 0.0, 8.211570739746094, -0.06478273868560791, 0.35763612389564514, 0.0588715597987175, 0.021388422801898625, -0.0452656107806888, -0.014304248092653819
52221, 1.4993691444396973, -1.517872929573059, -1.1274566650390625, -0.027476731687784195, 0.025632934644818306, 1.0002517700195312, 0.1995849609375, 9362.0, 28835.0, 32767.0, 9362.0, 0.0, 8.211570739746094, -0.06476788222789764, 0.3576367199420929, 0.05884435772895813, 0.0239593268748901, -0.04229254074840583, -0.006115458717272019
52231, 1.4997063875198364, -1.5195202827453613, -1.1279793977737427, -0.025871070101857185, 0.025420689955353737, 1.0006803274154663, 0.19684600830078125, 9362.0, 28835.0, 32767.0, 9362.0, 0.0, 8.211570739746094, -0.06478091329336166, 0.35763540863990784, 0.05889121815562248, 0.019083034843610427, -0.05686116715909861, -0.010936280647028715
52241, 1.4990497827529907, -1.5188251733779907, -1.1280697584152222, -0.024861011654138565, 0.026115618646144867, 1.0003225803375244, 0.19684600830078125, 9362.0, 28835.0, 32767.0, 9362.0, 0.0, 8.211570739746094, -0.06478031724691391, 0.3576294183731079, 0.058870021253824234, 0.020739210229069358, -0.04277114609314481, -0.004624735315933478
52251, 1.4988890886306763, -1.5193216800689697, -1.1290572881698608, -0.027857640758156776, 0.02544577233493328, 1.0004847049713135, 0.20505523681640625, 9362.0, 28835.0, 32767.0, 9362.0, 0.0, 8.211570739746094, -0.06477826833724976, 0.3576448857784271, 0.058856844902038574, 0.024659524171730892, -0.05191036605253885, -0.011848106956568063
52261, 1.4974864721298218, -1.5204172134399414, -1.1298731565475464, -0.02655133232474327, 0.02664850279688835, 0.9998797178268433, 0.20505523681640625, 9362.0, 28835.0, 32767.0, 9362.0, 0.0, 8.211570739746094, -0.06476398557424545, 0.3575328588485718, 0.058599796146154404, 0.08166656934336027, 0.02904139491167257, 0.056145260880945284
52271, 1.49685537815094, -1.5189191102981567, -1.1293885707855225, -0.02599293366074562, 0.02441493794322014, 0.9995601773262024, 0.2132568359375, 9362.0, 28835.0, 32767.0, 9362.0, 0.0, 8.211570739746094, -0.06478065252304077, 0.3576495945453644, 0.058865636587142944, 0.02153341906007087, -0.04933051150064216, -0.013473709616926418
52281, 1.4964642524719238, -1.5192557573318481, -1.128912091255188, -0.027594398707151413, 0.025386864319443703, 1.0013072490692139, 0.2132568359375, 9362.0, 28835.0, 32767.0, 9362.0, 0.0, 8.211570739746094, -0.06478634476661682, 0.3576456308364868, 0.05886281654238701, 0.020289233867464545, -0.05215272731553, -0.00247493264984734
52291, 1.4953680038452148, -1.5204256772994995, -1.1295866966247559, -0.026412324979901314, 0.02473081834614277, 1.0008103847503662, 0.2624664306640625, 9362.0, 28835.0, 32767.0, 9362.0, 0.0, 8.211570739746094, -0.06479135155677795, 0.35762840509414673, 0.05882546305656433, 0.016331299760575513, -0.04788902275038254, -0.013541485076700024
52301, 1.4950544834136963, -1.5186688899993896, -1.1286506652832031, -0.02709701471030712, 0.025024309754371643, 1.0015360116958618, 0.2624664306640625, 9362.0, 28835.0, 32767.0, 9362.0, 0.0, 8.211570739746094, -0.06478605419397354, 0.3576478064060211, 0.058866433799266815, 0.02006156987403823, -0.04589516197123089, -0.007401501199653179
52311, 1.4943434000015259, -1.5204216241836548, -1.1301937103271484, -0.026962943375110626, 0.024300765246152878, 1.0009498596191406, 0.22145843505859375, 9362.0, 28835.0, 32767.0, 9362.0, 0.0, 8.211570739746094, -0.0647914856672287, 0.357625275850296, 0.058855973184108734, 0.014878597962691786, -0.038255444015646844, -0.015689856097804804
52321, 1.49359130859375, -1.520675539970398, -1.1304166316986084, -0.027815505862236023, 0.02509247697889805, 1.0021387338638306, 0.22145843505859375, 9362.0, 28835.0, 32767.0, 9362.0, 0.0, 8.211570739746094, -0.06478657573461533, 0.35764098167419434, 0.0588645339012146, 0.019478728803682434, -0.048223451799117356, -0.010430854492156865
52331, 1.493328332901001, -1.5205284357070923, -1.1291552782058716, -0.02739397995173931, 0.026004275307059288, 0.9998760223388672, 0.2406005859375, 9362.0, 28835.0, 32767.0, 9362.0, 0.0, 8.211570739746094, -0.0647161602973938, 0.35757842659950256, 0.058820173144340515, -0.005906159542188248, -0.014034033756786357, -0.017157992399652086
52341, 1.4933103322982788, -1.5206608772277832, -1.1290205717086792, -0.025441907346248627, 0.025914203375577927, 0.9995790123939514, 0.2406005859375, 9362.0, 28835.0, 32767.0, 9362.0, 0.0, 8.211570739746094, -0.0647723376750946, 0.3576456308364868, 0.05885354429483414, 0.023608712847428954, -0.04536140777750575, -0.003898497980066002
52351, 1.4922066926956177, -1.5207639932632446, -1.1294291019439697, -0.02332962304353714, 0.026945102959871292, 1.001573920249939, 0.2159881591796875, 9362.0, 28835.0, 32767.0, 9362.0, 0.0, 8.211570739746094, -0.06478699296712875, 0.357635498046875, 0.05887426808476448, 0.01967723228085258, -0.05411973312897089, -0.0034169181258615748
52361, 1.4917703866958618, -1.5216232538223267, -1.1293551921844482, -0.023860830813646317, 0.02539961412549019, 1.0017695426940918, 0.2159881591796875, 9362.0, 28835.0, 32767.0, 9362.0, 0.0, 8.211570739746094, -0.06477590650320053, 0.3576427102088928, 0.05888664722442627, 0.02675324440232065, -0.06022642113268262, -0.00888178267919018
52371, 1.4922293424606323, -1.5229504108428955, -1.1293398141860962, -0.02756425179541111, 0.026510540395975113, 1.0016536712646484, 0.166778564453125, 9362.0, 28835.0, 32767.0, 9362.0, 0.0, 8.211570739746094, -0.064781054854393, 0.35763218998908997, 0.05887502431869507, 0.026652265227582368, -0.0602967758887587, 0.0008284371754924893
52381, 1.4923630952835083, -1.5224957466125488, -1.1290861368179321, -0.027158673852682114, 0.026966862380504608, 1.0006005764007568, 0.166778564453125, 9362.0, 28835.0, 32767.0, 9362.0, 0.0, 8.211570739746094, -0.06469858437776566, 0.35757046937942505, 0.058807123452425, 0.0038227752802323218, -0.014965885352552277, -0.011411184006490185
52391, 1.4913523197174072, -1.5234042406082153, -1.13071870803833, -0.024753328412771225, 0.028330855071544647, 1.0012730360031128, 0.25153350830078125, 9362.0, 28835.0, 32767.0, 9362.0, 0.0, 8.211570739746094, -0.06478006392717361, 0.3576609492301941, 0.05885705724358559, 0.027583818463203798, -0.04941433297869935, -0.0007849871293047833
52401, 1.4907857179641724, -1.5245217084884644, -1.1315287351608276, -0.024385327473282814, 0.025327976793050766, 1.000470519065857, 0.25153350830078125, 9362.0, 28835.0, 32767.0, 9362.0, 0.0, 8.211570739746094, -0.06470568478107452, 0.3575807511806488, 0.05882497876882553, -0.002499067452467715, -0.016735165032116583, -0.012185119351720284
52411, 1.490922212600708, -1.5242730379104614, -1.1320875883102417, -0.027598204091191292, 0.02566935122013092, 0.9988447427749634, 0.2570037841796875, 9362.0, 28835.0, 32767.0, 9362.0, 0.0, 8.211570739746094, -0.06476674973964691, 0.35764753818511963, 0.05884633585810661, 0.025311282412494106, -0.050436421335717796, 0.009902240711655035
52421, 1.492454171180725, -1.5256128311157227, -1.1326744556427002, -0.02702178806066513, 0.02848121151328087, 0.9986275434494019, 0.2570037841796875, 9362.0, 28835.0, 32767.0, 9362.0, 0.0, 8.211570739746094, -0.06479285657405853, 0.3576439619064331, 0.05885694548487663, 0.029291283679564243, -0.04962295171301889, -0.0019456283293498365
52431, 1.4915053844451904, -1.5240657329559326, -1.1323165893554688, -0.025654537603259087, 0.02510399930179119, 0.998264729976654, 0.2378692626953125, 9362.0, 28835.0, 32767.0, 9362.0, 0.0, 8.211570739746094, -0.06478415429592133, 0.3576396405696869, 0.05886121466755867, 0.02327120174568566, -0.04840946666897139, -0.014914800317942881
52441, 1.4905266761779785, -1.5239083766937256, -1.1324026584625244, -0.02496837079524994, 0.023640748113393784, 1.0003869533538818, 0.2378692626953125, 9362.0, 28835.0, 32767.0, 9362.0, 0.0, 8.211570739746094, -0.06479335576295853, 0.3576450049877167, 0.05886290967464447, 0.02313133499693858, -0.049305903431104525, -0.004356514572278493
52451, 1.4906563758850098, -1.5246238708496094, -1.131474256515503, -0.02559603378176689, 0.02676338143646717, 1.0010770559310913, 0.259735107421875, 9362.0, 28835.0, 32767.0, 9362.0, 0.0, 8.211570739746094, -0.0647893026471138, 0.3576450049877167, 0.058853160589933395, 0.018152818488116024, -0.058328562128821204, -0.002750494330997386
52461, 1.4907360076904297, -1.5249581336975098, -1.132098913192749, -0.025291476398706436, 0.028011132031679153, 0.9991911053657532, 0.259735107421875, 9362.0, 28835.0, 32767.0, 9362.0, 0.0, 8.211570739746094, -0.06464177370071411, 0.3575320839881897, 0.058846767991781235, -0.025427668467272554, 0.006325924631454427, -0.0011747023535043219
52471, 1.4912904500961304, -1.524296760559082, -1.1316243410110474, -0.024179069325327873, 0.027118626981973648, 1.0015395879745483, 0.25153350830078125, 9362.0, 28835.0, 32767.0, 9362.0, 0.0, 8.211570739746094, -0.06478483229875565, 0.3576478064060211, 0.058828890323638916, 0.024699396479658235, -0.053659289542110855, -0.0028791788721617166
52481, 1.4914672374725342, -1.5236762762069702, -1.1311980485916138, -0.025921586900949478, 0.02668357826769352, 1.0022258758544922, 0.25153350830078125, 9362.0, 28835.0, 32767.0, 9362.0, 0.0, 8.211570739746094, -0.06469183415174484, 0.3575884699821472, 0.05881815403699875, 0.0026462129243486885, -0.03021749796718609, -0.014791472365049846
52491, 1.4912697076797485, -1.5252788066864014, -1.1313261985778809, -0.026234636083245277, 0.02515222504734993, 1.000433325767517, 0.20505523681640625, 9362.0, 28835.0, 32767.0, 9362.0, 0.0, 8.211570739746094, -0.06478973478078842, 0.3576398193836212, 0.058857034891843796, 0.013332198836596384, -0.055113197416403636, -0.015780950006267593
52501, 1.4918854236602783, -1.5253294706344604, -1.1311500072479248, -0.028439603745937347, 0.02599874883890152, 0.9985184073448181, 0.20505523681640625, 9362.0, 28835.0, 32767.0, 9362.0, 0.0, 8.211570739746094, -0.06478597968816757, 0.3576304316520691, 0.058868322521448135, 0.020033924679270516, -0.05704520902105514, -0.00532599591147802
52511, 1.4916433095932007, -1.5277376174926758, -1.1317251920700073, -0.025386469438672066, 0.026732850819826126, 1.0016950368881226, 0.18865203857421875, 9362.0, 28835.0, 32767.0, 9362.0, 0.0, 8.211570739746094, -0.06472162157297134, 0.35759398341178894, 0.05891565605998039, 0.003972495276359874, -0.014144939853565575, -0.0043777878386264575
52521, 1.490325689315796, -1.5285300016403198, -1.133178472518921, -0.023778298869729042, 0.027325578033924103, 1.0007001161575317, 0.18865203857421875, 9362.0, 28835.0, 32767.0, 9362.0, 0.0, 8.211570739746094, -0.06476902961730957, 0.3576347231864929, 0.058848027139902115, 0.021098708866676058, -0.042168057692322236, -0.012660905275222333
52531, 1.4906808137893677, -1.5297181606292725, -1.133726716041565, -0.025722961872816086, 0.026201415807008743, 0.9994414448738098, 0.25426483154296875, 9362.0, 28835.0, 32767.0, 9362.0, 0.0, 8.211570739746094, -0.06477843970060349, 0.35763928294181824, 0.05884486809372902, 0.02853925709769263, -0.04708795464335935, -0.006360816276291119
52541, 1.491464614868164, -1.5303183794021606, -1.134031891822815, -0.026198631152510643, 0.027322832494974136, 0.9994370937347412, 0.25426483154296875, 9362.0, 28835.0, 32767.0, 9362.0, 0.0, 8.211570739746094, -0.06485214084386826, 0.3576001822948456, 0.058762241154909134, 0.04317742385301283, -0.03621010574048, -0.026513076209479722
52551, 1.4903955459594727, -1.5301415920257568, -1.1353754997253418, -0.025754662230610847, 0.026627926155924797, 0.9992738366127014, 0.19138336181640625, 9362.0, 28835.0, 32767.0, 9362.0, 0.0, 8.211570739746094, -0.06477706879377365, 0.3576526939868927, 0.058882348239421844, 0.02148432419056936, -0.05353671053359221, -0.004186271259525487
52561, 1.4916139841079712, -1.5310282707214355, -1.1365041732788086, -0.026183994486927986, 0.02666747197508812, 0.9997717142105103, 0.19138336181640625, 9362.0, 28835.0, 32767.0, 9362.0, 0.0, 8.211570739746094, -0.06478921324014664, 0.3576458692550659, 0.05886820703744888, 0.01714481461728707, -0.04782616465811884, -0.0036517024802674414
52571, 1.4929702281951904, -1.5306113958358765, -1.1366219520568848, -0.026178719475865364, 0.029035797342658043, 1.0003020763397217, 0.1558380126953125, 9362.0, 28835.0, 32767.0, 9362.0, 0.0, 8.211570739746094, -0.06478282809257507, 0.3576459288597107, 0.058867909014225006, 0.019654314280040334, -0.043737017326606065, -0.013381014408375485
52581, 1.4928908348083496, -1.5314083099365234, -1.137492060661316, -0.025635194033384323, 0.027751557528972626, 1.000222086906433, 0.1558380126953125, 9362.0, 28835.0, 32767.0, 9362.0, 0.0, 8.211570739746094, -0.06477826088666916, 0.35764551162719727, 0.05886981263756752, 0.021343069372416656, -0.04845082638226472, -0.006047125990365619
52591, 1.4919794797897339, -1.5316027402877808, -1.1376252174377441, -0.026149654760956764, 0.02574249915778637, 0.9991942644119263, 0.1421661376953125, 9362.0, 28835.0, 32767.0, 9362.0, 0.0, 8.211570739746094, -0.06477566063404083, 0.3576466143131256, 0.05885172635316849, 0.01621013027534999, -0.041985619152200115, -0.001282330890138083
52601, 1.490556240081787, -1.5323796272277832, -1.139104962348938, -0.026767386123538017, 0.0257000420242548, 1.0001264810562134, 0.1421661376953125, 9362.0, 28835.0, 32767.0, 9362.0, 0.0, 8.211570739746094, -0.0647214725613594, 0.3575838804244995, 0.05882152169942856, -0.004751564646242068, -0.018024837852408382, -0.016919341929559423
52611, 1.4909495115280151, -1.5331262350082397, -1.1398584842681885, -0.027239130809903145, 0.023178037256002426, 1.0015478134155273, 0.0437469482421875, 9362.0, 28835.0, 32767.0, 9362.0, 0.0, 8.211570739746094, -0.06479047238826752, 0.3576405644416809, 0.0588601790368557, 0.02685633070620774, -0.04621191161982097, 0.0016395143755633637
52621, 1.4894782304763794, -1.5331231355667114, -1.139408826828003, -0.025677625089883804, 0.022289346903562546, 0.9999794363975525, 0.0437469482421875, 9362.0, 28835.0, 32767.0, 9362.0, 0.0, 8.211570739746094, -0.06477116048336029, 0.35762447118759155, 0.058871153742074966, 0.018410382646418484, -0.046560488779419984, -0.006227649919283998
52631, 1.489543080329895, -1.532142996788025, -1.1402215957641602, -0.028026506304740906, 0.024265488609671593, 1.0006595849990845, 0.18865203857421875, 9362.0, 28835.0, 32767.0, 9362.0, 0.0, 8.211570739746094, -0.06476394832134247, 0.3576492667198181, 0.058856185525655746, 0.03823270882597813, -0.04547801494697978, -0.002492184732028251
52641, 1.4904866218566895, -1.5321919918060303, -1.1402291059494019, -0.02755376324057579, 0.025576608255505562, 1.001234531402588, 0.18865203857421875, 9362.0, 28835.0, 32767.0, 9362.0, 0.0, 8.211570739746094, -0.06478676199913025, 0.35764768719673157, 0.05884122475981712, 0.021108177987523527, -0.050476585601501256, 0.0012286739954102343
52651, 1.4909276962280273, -1.5317469835281372, -1.138843059539795, -0.025752108544111252, 0.027943050488829613, 1.0015244483947754, 0.2132568359375, 9362.0, 28835.0, 32767.0, 9362.0, 0.0, 8.211570739746094, -0.06478631496429443, 0.3576366901397705, 0.05886023864150047, 0.018801551881906933, -0.04738753205737112, -0.00938861439592073
52661, 1.4916205406188965, -1.5317631959915161, -1.1398844718933105, -0.02494780719280243, 0.02742633782327175, 0.9999045133590698, 0.2132568359375, 9362.0, 28835.0, 32767.0, 9362.0, 0.0, 8.211570739746094, -0.06470172107219696, 0.3575817942619324, 0.05882296711206436, -0.004278193872977758, -0.02269100667103885, -0.005056907924598613
52671, 1.4929357767105103, -1.5321959257125854, -1.1395939588546753, -0.025379152968525887, 0.027802463620901108, 1.000386357307434, 0.2378692626953125, 9362.0, 28835.0, 32767.0, 9362.0, 0.0, 8.211570739746094, -0.06478951126337051, 0.3576290011405945, 0.058871954679489136, 0.019324322003929136, -0.05177445727599661, -0.00990589001492843
52681, 1.4928871393203735, -1.533687949180603, -1.1394572257995605, -0.024895435199141502, 0.02770709991455078, 0.9995354413986206, 0.2378692626953125, 9362.0, 28835.0, 32767.0, 9362.0, 0.0, 8.211570739746094, -0.06479569524526596, 0.357637882232666, 0.058878783136606216, 0.021931316544469184, -0.04827761021655874, -0.01266494302654139
52691, 1.4933148622512817, -1.5342016220092773, -1.1396548748016357, -0.025391090661287308, 0.025854235514998436, 0.9997396469116211, 0.2241973876953125, 9362.0, 28835.0, 32767.0, 9362.0, 0.0, 8.211570739746094, -0.06485652178525925, 0.3575872778892517, 0.05875975638628006, 0.04427677532466687, -0.02955395855428833, -0.029534062643826332
52701, 1.492812991142273, -1.5356320142745972, -1.140223741531372, -0.026025211438536644, 0.026053747162222862, 0.9995453357696533, 0.2241973876953125, 9362.0, 28835.0, 32767.0, 9362.0, 0.0, 8.211570739746094, -0.06478757411241531, 0.35764235258102417, 0.058833859860897064, 0.029935278700194707, -0.04715735434976409, -0.0045364658045813815
52711, 1.4933393001556396, -1.5357532501220703, -1.1400010585784912, -0.027584481984376907, 0.026200655847787857, 0.9993941187858582, 0.166778564453125, 9362.0, 28835.0, 32767.0, 9362.0, 0.0, 8.211570739746094, -0.06480001658201218, 0.3576473593711853, 0.058858420699834824, 0.015292914894274213, -0.04401819301764931, -0.018027117760840223
52721, 1.4930510520935059, -1.535735011100769, -1.140971302986145, -0.025153949856758118, 0.025880182161927223, 1.0003125667572021, 0.166778564453125, 9362.0, 28835.0, 32767.0, 9362.0, 0.0, 8.211570739746094, -0.06478815525770187, 0.3576377332210541, 0.05885835364460945, 0.020620585986878267, -0.049280013364978004, -0.010852222343758699
52731, 1.4929810762405396, -1.5359777212142944, -1.142369031906128, -0.025597453117370605, 0.02584349922835827, 0.9992472529411316, 0.16130828857421875, 9362.0, 28835.0, 32767.0, 9362.0, 0.0, 8.211570739746094, -0.06478419899940491, 0.35763782262802124, 0.0588335320353508, 0.026679112203379266, -0.046898888875915645, -0.002700519967215295
52741, 1.4916901588439941, -1.5362375974655151, -1.141648530960083, -0.025595419108867645, 0.02672068402171135, 0.9989863634109497, 0.16130828857421875, 9362.0, 28835.0, 32767.0, 9362.0, 0.0, 8.211570739746094, -0.06477953493595123, 0.35765525698661804, 0.05885491147637367, 0.020491495773598226, -0.046623158137265364, -0.005594152491443724
52751, 1.4930047988891602, -1.5364513397216797, -1.1418617963790894, -0.024558596312999725, 0.025003787130117416, 1.0006756782531738, 0.232391357421875, 9362.0, 28835.0, 32767.0, 9362.0, 0.0, 8.211570739746094, -0.06478317826986313, 0.35763102769851685, 0.05886923521757126, 0.022611465180996937, -0.05297542347651074, -0.010360539123689883
52761, 1.4916985034942627, -1.5353814363479614, -1.1425312757492065, -0.025454029440879822, 0.025305012241005898, 1.0021899938583374, 0.232391357421875, 9362.0, 28835.0, 32767.0, 9362.0, 0.0, 8.211570739746094, -0.06479211896657944, 0.35763493180274963, 0.05884067341685295, 0.02003847826359636, -0.05224478172786462, -0.013149568561002389
52771, 1.492419719696045, -1.5371021032333374, -1.14266037940979, -0.026485830545425415, 0.02666892670094967, 1.0027269124984741, 0.28707122802734375, 9362.0, 28835.0, 32767.0, 9362.0, 0.0, 8.211570739746094, -0.06477665156126022, 0.35764190554618835, 0.058838337659835815, 0.02023226695860518, -0.04651913273758623, -0.003763750236124683
52781, 1.4941235780715942, -1.5375697612762451, -1.1427373886108398, -0.026934031397104263, 0.02459738403558731, 0.9995412230491638, 0.28707122802734375, 9362.0, 28835.0, 32767.0, 9362.0, 0.0, 8.211570739746094, -0.0647750273346901, 0.3576470911502838, 0.0588490255177021, 0.02497977027129532, -0.055100043953842714, -0.006097070649682201
52791, 1.4934521913528442, -1.5371414422988892, -1.1430200338363647, -0.025881927460432053, 0.024815034121274948, 1.0013234615325928, 0.28433990478515625, 9362.0, 28835.0, 32767.0, 9362.0, 0.0, 8.211570739746094, -0.06479062885046005, 0.35764163732528687, 0.05885559320449829, 0.022525558807038448, -0.04887831965783107, -0.013957921566858112
52801, 1.4924439191818237, -1.5382508039474487, -1.142639398574829, -0.025479482486844063, 0.025448188185691833, 1.0020692348480225, 0.28433990478515625, 9362.0, 28835.0, 32767.0, 9362.0, 0.0, 8.211570739746094, -0.06470746546983719, 0.3575691282749176, 0.05882434919476509, -0.005247954753673081, -0.01586862721140392, -0.01711060455475741
52811, 1.4924732446670532, -1.5392889976501465, -1.142310380935669, -0.02677617222070694, 0.025525784119963646, 1.0010794401168823, 0.2351226806640625, 9362.0, 28835.0, 32767.0, 9362.0, 0.0, 8.211570739746094, -0.06479565054178238, 0.35763370990753174, 0.058869075030088425, 0.02528482403286515, -0.05367671895993453, -0.00616990129009107
52821, 1.4935990571975708, -1.5385743379592896, -1.1424442529678345, -0.026327945291996002, 0.02648916281759739, 1.001787781715393, 0.2351226806640625, 9362.0, 28835.0, 32767.0, 9362.0, 0.0, 8.211570739746094, -0.06479088962078094, 0.35762643814086914, 0.05886246636509895, 0.021596594272026762, -0.04437648831134311, -0.013338121144551485
52831, 1.4936636686325073, -1.5381888151168823, -1.1436465978622437, -0.025689680129289627, 0.028281094506382942, 1.0001888275146484, 0.246063232421875, 9362.0, 28835.0, 32767.0, 9362.0, 0.0, 8.211570739746094, -0.06478006392717361, 0.3576558828353882, 0.05886649712920189, 0.024056383761496786, -0.04976317951047804, -0.005334152230529929
52841, 1.4930341243743896, -1.5371603965759277, -1.1439366340637207, -0.027547482401132584, 0.027232933789491653, 1.0000566244125366, 0.246063232421875, 9362.0, 28835.0, 32767.0, 9362.0, 0.0, 8.211570739746094, -0.06478535383939743, 0.3576467037200928, 0.058850303292274475, 0.009415180978933221, -0.047771498281065305, -0.01592637917752249
52851, 1.4923992156982422, -1.5361065864562988, -1.143877387046814, -0.02710074558854103, 0.02469438686966896, 1.0021319389343262, 0.17224884033203125, 9362.0, 28835.0, 32767.0, 9362.0, 0.0, 8.211570739746094, -0.06478490680456161, 0.3576468527317047, 0.05883768945932388, 0.019985906957584985, -0.041722642525598985, -0.006082303218195197
52861, 1.4917633533477783, -1.5347106456756592, -1.1454925537109375, -0.025286134332418442, 0.025085004046559334, 1.0005590915679932, 0.17224884033203125, 9362.0, 28835.0, 32767.0, 9362.0, 0.0, 8.211570739746094, -0.06479422003030777, 0.3576391637325287, 0.05884359031915665, 0.021427366240171605, -0.05057080469208586, -0.016950676770031745
52871, 1.4912785291671753, -1.5343239307403564, -1.14554762840271, -0.024843813851475716, 0.02532050386071205, 0.9973586797714233, 0.2296600341796875, 9362.0, 28835.0, 32767.0, 9362.0, 0.0, 8.211570739746094, -0.06479085981845856, 0.3576369881629944, 0.05885278061032295, 0.019720316716867914, -0.05779301463675779, -0.00876326189800944
52881, 1.4913829565048218, -1.5345994234085083, -1.1455237865447998, -0.02539079263806343, 0.027164842933416367, 0.9992180466651917, 0.2296600341796875, 9362.0, 28835.0, 32767.0, 9362.0, 0.0, 8.211570739746094, -0.0647764578461647, 0.35764646530151367, 0.05886164680123329, 0.023185558832991445, -0.057343521298207634, -0.008006127194145268
52891, 1.4897258281707764, -1.53541898727417, -1.1457666158676147, -0.026085222139954567, 0.023739008232951164, 1.0009939670562744, 0.2296600341796875, 9362.0, 28835.0, 32767.0, 9362.0, 0.0, 8.211570739746094, -0.06479419022798538, 0.3576510548591614, 0.05886921286582947, 0.012591648283675596, -0.050690335180576085, -0.0077682947191244
52901, 1.4895434379577637, -1.5345425605773926, -1.1464611291885376, -0.02569359913468361, 0.02434060536324978, 1.0008846521377563, 0.2296600341796875, 9362.0, 28835.0, 32767.0, 9362.0, 0.0, 8.211570739746094, -0.06479266285896301, 0.3576359450817108, 0.05883469060063362, 0.01871647556377364, -0.044428418083896304, -0.008686934251260606
52911, 1.4887921810150146, -1.534688949584961, -1.1459641456604004, -0.025914426892995834, 0.02577134035527706, 1.0031763315200806, 0.08202362060546875, 9362.0, 28835.0, 32767.0, 9362.0, 0.0, 8.211570739746094, -0.06471256166696548, 0.3575742542743683, 0.05881743133068085, -0.009681916233266667, -0.015650762357495296, -0.02434317903974669
52921, 1.4884421825408936, -1.5331734418869019, -1.1459612846374512, -0.025146396830677986, 0.026647992432117462, 1.0016999244689941, 0.08202362060546875, 9362.0, 28835.0, 32767.0, 9362.0, 0.0, 8.211570739746094, -0.0647842139005661, 0.35764026641845703, 0.058859728276729584, 0.017232554710695583, -0.04780717359250275, -0.013338226916371265
52931, 1.489525318145752, -1.5319063663482666, -1.1470199823379517, -0.02601669169962406, 0.02467719465494156, 0.9985687732696533, 0.139434814453125, 9362.0, 28835.0, 32767.0, 9362.0, 0.0, 8.211570739746094, -0.06477577984333038, 0.35752755403518677, 0.05872151255607605, 0.027597226493549724, -0.007160617168807448, -0.02976341936579889
52941, 1.4892736673355103, -1.5336928367614746, -1.1466431617736816, -0.026016315445303917, 0.025079483166337013, 0.9994916915893555, 0.139434814453125, 9362.0, 28835.0, 32767.0, 9362.0, 0.0, 8.211570739746094, -0.06478527933359146, 0.35763195157051086, 0.05883725732564926, 0.012560734197331612, -0.050849612728143256, -0.011031635828484383
52951, 1.4894845485687256, -1.531685471534729, -1.146565556526184, -0.025014758110046387, 0.026989499107003212, 0.9998759031295776, 0.20505523681640625, 9362.0, 28835.0, 32767.0, 9362.0, 0.0, 8.211570739746094, -0.06470666080713272, 0.35758379101753235, 0.05882553383708, -0.0032111618078482823, -0.023870653456583568, -0.007744338700647661
52961, 1.4903029203414917, -1.5317296981811523, -1.1464285850524902, -0.025720810517668724, 0.02768798917531967, 1.0004862546920776, 0.20505523681640625, 9362.0, 28835.0, 32767.0, 9362.0, 0.0, 8.211570739746094, -0.06478160619735718, 0.3576355278491974, 0.05885373800992966, 0.017195183639332683, -0.048218988023421616, -0.014784456565861352
52971, 1.4910717010498047, -1.5308204889297485, -1.1453309059143066, -0.026095563545823097, 0.026293670758605003, 0.9987326264381409, 0.2105255126953125, 9362.0, 28835.0, 32767.0, 9362.0, 0.0, 8.211570739746094, -0.06478223204612732, 0.3576420545578003, 0.058857034891843796, 0.026690568280730253, -0.05051415582582308, -0.007522842306231586
52981, 1.4894648790359497, -1.5304694175720215, -1.1450259685516357, -0.026590490713715553, 0.025613421574234962, 0.9991120100021362, 0.2105255126953125, 9362.0, 28835.0, 32767.0, 9362.0, 0.0, 8.211570739746094, -0.0647042915225029, 0.35757210850715637, 0.058831483125686646, -0.0010811515735613324, -0.03103879065972137, -0.021500288635612142
52991, 1.4899746179580688, -1.5310215950012207, -1.1452571153640747, -0.026173636317253113, 0.025329217314720154, 0.9992619752883911, 0.28980255126953125, 9362.0, 28835.0, 32767.0, 9362.0, 0.0, 8.211570739746094, -0.06478175520896912, 0.35762497782707214, 0.058839406818151474, 0.020516717434322082, -0.04880700639102997, -0.0042586109471458656
53001, 1.4890294075012207, -1.531669020652771, -1.1459929943084717, -0.02587369829416275, 0.025466591119766235, 1.000441074371338, 0.28980255126953125, 9362.0, 28835.0, 32767.0, 9362.0, 0.0, 8.211570739746094, -0.06478936970233917, 0.3576394021511078, 0.058863215148448944, 0.024660079142219477, -0.05255177631207175, -0.01046747536139068
53011, 1.4888410568237305, -1.532128095626831, -1.1461031436920166, -0.027035729959607124, 0.02606612630188465, 0.9997615218162537, 0.31714630126953125, 9362.0, 28835.0, 32767.0, 9362.0, 0.0, 8.211570739746094, -0.0647919699549675, 0.35763466358184814, 0.0588667169213295, 0.01983491550344225, -0.05173218201639429, -0.02259788852059248
53021, 1.4883089065551758, -1.5333385467529297, -1.1462315320968628, -0.026068128645420074, 0.025126870721578598, 1.000968337059021, 0.31714630126953125, 9362.0, 28835.0, 32767.0, 9362.0, 0.0, 8.211570739746094, -0.06479360908269882, 0.35764607787132263, 0.058860789984464645, 0.021443942209436788, -0.04514517884845759, -0.007249730621225689
53031, 1.4885094165802002, -1.5319058895111084, -1.1470012664794922, -0.027712376788258553, 0.024394866079092026, 0.9993034601211548, 0.31714630126953125, 9362.0, 28835.0, 32767.0, 9362.0, 0.0, 8.211570739746094, -0.06470783054828644, 0.35757479071617126, 0.05879997834563255, -0.004252127159723192, -0.011916285848656116, -0.015539088529765457
53041, 1.489261507987976, -1.533015251159668, -1.1471829414367676, -0.027441978454589844, 0.02457822673022747, 0.9996364116668701, 0.31714630126953125, 9362.0, 28835.0, 32767.0, 9362.0, 0.0, 8.211570739746094, -0.06479113548994064, 0.35764080286026, 0.05885479599237442, 0.02075665937330879, -0.04638790081682487, -0.013888414050204636
53051, 1.4895597696304321, -1.533710241317749, -1.1471935510635376, -0.024949150159955025, 0.02590850740671158, 1.0004302263259888, 0.27066802978515625, 9362.0, 28835.0, 32767.0, 9362.0, 0.0, 8.211570739746094, -0.0647861585021019, 0.35764485597610474, 0.05885520949959755, 0.02594839843133589, -0.0416666074726777, -0.011524496016620452
53061, 1.4900987148284912, -1.5311720371246338, -1.146857500076294, -0.02555152028799057, 0.02550605684518814, 1.0002033710479736, 0.27066802978515625, 9362.0, 28835.0, 32767.0, 9362.0, 0.0, 8.211570739746094, -0.06479184329509735, 0.3576364815235138, 0.05885378271341324, 0.024758472563357524, -0.03632181519100186, -0.010423777701173571
53071, 1.4918770790100098, -1.5322251319885254, -1.145957112312317, -0.024637386202812195, 0.026288622990250587, 0.9994804859161377, 0.30347442626953125, 9362.0, 28835.0, 32767.0, 9362.0, 0.0, 8.211570739746094, -0.06471239030361176, 0.3575729429721832, 0.05882447212934494, -0.0010602056014917321, -0.016262435682563137, -0.01526532557903411
53081, 1.4916561841964722, -1.5311002731323242, -1.1467598676681519, -0.024853002279996872, 0.024369653314352036, 0.9999479055404663, 0.30347442626953125, 9362.0, 28835.0, 32767.0, 9362.0, 0.0, 8.211570739746094, -0.06478098779916763, 0.35762709379196167, 0.05886758863925934, 0.01770891378445018, -0.043725626846793375, -0.005196207721645009
53091, 1.491195797920227, -1.531956434249878, -1.1485872268676758, -0.026228560134768486, 0.023813851177692413, 1.0000172853469849, 0.2269287109375, 9362.0, 28835.0, 32767.0, 9362.0, 0.0, 8.211570739746094, -0.06478612869977951, 0.3576543927192688, 0.05887160077691078, 0.028839344019479535, -0.05624437696812379, -0.0075327009577325224
53101, 1.491959810256958, -1.5327168703079224, -1.1478642225265503, -0.026680201292037964, 0.02516915462911129, 1.0006617307662964, 0.2269287109375, 9362.0, 28835.0, 32767.0, 9362.0, 0.0, 8.211570739746094, -0.0647280141711235, 0.3575955033302307, 0.05882680043578148, 0.0013910890491491057, -0.022255872755181372, -0.0061905559922322065
53111, 1.4915560483932495, -1.5338361263275146, -1.1487455368041992, -0.026150718331336975, 0.02514086291193962, 1.0002567768096924, 0.2487945556640625, 9362.0, 28835.0, 32767.0, 9362.0, 0.0, 8.211570739746094, -0.06479108333587646, 0.357636034488678, 0.058873116970062256, 0.022771377258889818, -0.044582293339715307, -0.010006123208838522
53121, 1.4907424449920654, -1.533342719078064, -1.1488341093063354, -0.026304015889763832, 0.02699613943696022, 0.9999115467071533, 0.2487945556640625, 9362.0, 28835.0, 32767.0, 9362.0, 0.0, 8.211570739746094, -0.06479784101247787, 0.3576570451259613, 0.05885976180434227, 0.021743431691950907, -0.04646566769434912, -0.0027626642091207257
53131, 1.4899080991744995, -1.5318562984466553, -1.1504359245300293, -0.02615622617304325, 0.02657071128487587, 1.0009688138961792, 0.26520538330078125, 9362.0, 28835.0, 32767.0, 9362.0, 0.0, 8.211570739746094, -0.06477747857570648, 0.3576379418373108, 0.058897439390420914, 0.027749228728687084, -0.0578749459375274, -0.00870329748519726
53141, 1.489193081855774, -1.5320732593536377, -1.1514558792114258, -0.026244450360536575, 0.02574794739484787, 1.003204345703125, 0.26520538330078125, 9362.0, 28835.0, 32767.0, 9362.0, 0.0, 8.211570739746094, -0.0647750198841095, 0.3576406240463257, 0.058848943561315536, 0.021173571434721445, -0.055878205724809504, -0.000915111635240428
53151, 1.4876717329025269, -1.530970811843872, -1.1527725458145142, -0.02509216219186783, 0.025166811421513557, 1.0016710758209229, 0.2296600341796875, 9362.0, 28835.0, 32767.0, 9362.0, 0.0, 8.211570739746094, -0.06471294164657593, 0.35758450627326965, 0.05883236974477768, 0.0024615400807940888, -0.014580282717815862, -0.01086970212168018
53161, 1.4878597259521484, -1.5305542945861816, -1.1529322862625122, -0.02377447299659252, 0.02435370720922947, 0.9998816847801208, 0.2296600341796875, 9362.0, 28835.0, 32767.0, 9362.0, 0.0, 8.211570739746094, -0.0647040456533432, 0.3575742244720459, 0.05881436914205551, 0.005097665600827847, -0.01657309612292579, -0.011824218225982812
53171, 1.4877216815948486, -1.5307221412658691, -1.1533339023590088, -0.02493296191096306, 0.024933451786637306, 1.00002121925354, 0.28433990478515625, 9362.0, 28835.0, 32767.0, 9362.0, 0.0, 8.211570739746094, -0.06479857116937637, 0.3576447665691376, 0.05887864902615547, 0.017233739208770738, -0.04481482432447592, -0.009019603211127996
53181, 1.4878253936767578, -1.5311157703399658, -1.153515100479126, -0.026569534093141556, 0.02505696378648281, 1.0001168251037598, 0.28433990478515625, 9362.0, 28835.0, 32767.0, 9362.0, 0.0, 8.211570739746094, -0.06476476043462753, 0.3576478362083435, 0.05887564644217491, 0.02525843882327189, -0.05423939389706334, -0.0018855625310465205
53191, 1.487837553024292, -1.5313376188278198, -1.154720425605774, -0.024983789771795273, 0.024614688009023666, 1.0004191398620605, 0.33355712890625, 9362.0, 28835.0, 32767.0, 9362.0, 0.0, 8.211570739746094, -0.06477122753858566, 0.35763952136039734, 0.05888323113322258, 0.023241746351043507, -0.05308421941319352, -0.008072739074084897
53201, 1.4865937232971191, -1.5331897735595703, -1.15495765209198, -0.027441563084721565, 0.024478619918227196, 1.001585841178894, 0.33355712890625, 9362.0, 28835.0, 32767.0, 9362.0, 0.0, 8.211570739746094, -0.06478068232536316, 0.3576298952102661, 0.05888916179537773, 0.01764497346194188, -0.04828211657417114, -0.005501469448538291
53211, 1.4869282245635986, -1.5347522497177124, -1.1565288305282593, -0.027058467268943787, 0.02411803975701332, 1.001828908920288, 0.28160858154296875, 9362.0, 28835.0, 32767.0, 9362.0, 0.0, 8.211570739746094, -0.06478622555732727, 0.35764098167419434, 0.05887391418218613, 0.011877082823781292, -0.04394471582526194, -0.009961477850794634
53221, 1.4869195222854614, -1.535193920135498, -1.156746506690979, -0.027026064693927765, 0.025886859744787216, 1.0008323192596436, 0.28160858154296875, 9362.0, 28835.0, 32767.0, 9362.0, 0.0, 8.211570739746094, -0.06479176878929138, 0.3576374650001526, 0.05889095738530159, 0.023690916049351453, -0.05100964420248033, -0.009652320318375833
53231, 1.4857747554779053, -1.535819411277771, -1.1578909158706665, -0.026482542976737022, 0.023798968642950058, 1.0016443729400635, 0.31168365478515625, 9362.0, 28835.0, 32767.0, 9362.0, 0.0, 8.211570739746094, -0.06479180604219437, 0.3576517403125763, 0.05886290967464447, 0.02291215312599916, -0.04427622027878897, -0.001474995658951416
53241, 1.4859758615493774, -1.5355902910232544, -1.1587471961975098, -0.026825755834579468, 0.026020852848887444, 0.9997519254684448, 0.31168365478515625, 9362.0, 28835.0, 32767.0, 9362.0, 0.0, 8.211570739746094, -0.0647907480597496, 0.3576306402683258, 0.058855701237916946, 0.033534010417753085, -0.04570768830743077, -0.0098535454296715
53251, 1.485259771347046, -1.5354130268096924, -1.1598511934280396, -0.02681232988834381, 0.026729078963398933, 0.9986368417739868, 0.31988525390625, 9362.0, 28835.0, 32767.0, 9362.0, 0.0, 8.211570739746094, -0.06478095799684525, 0.3576463758945465, 0.058880191296339035, 0.023638540654566543, -0.047512358442190816, -0.009015620849100547
53261, 1.484709620475769, -1.535286545753479, -1.1599048376083374, -0.024786390364170074, 0.02350994199514389, 0.9986193180084229, 0.31988525390625, 9362.0, 28835.0, 32767.0, 9362.0, 0.0, 8.211570739746094, -0.06478384137153625, 0.35764625668525696, 0.058894965797662735, 0.027484867654918463, -0.06297528486473425, -0.003555704817904298
53271, 1.4846678972244263, -1.5340315103530884, -1.1598724126815796, -0.023493578657507896, 0.026104412972927094, 0.999653160572052, 0.28160858154296875, 9362.0, 28835.0, 32767.0, 9362.0, 0.0, 8.211570739746094, -0.06479614228010178, 0.3576383590698242, 0.058890726417303085, 0.0313134586503227, -0.056495763061121806, -0.002128101799348691
53281, 1.4849473237991333, -1.5348317623138428, -1.1599130630493164, -0.02717793732881546, 0.02635074406862259, 1.0002632141113281, 0.28160858154296875, 9362.0, 28835.0, 32767.0, 9362.0, 0.0, 8.211570739746094, -0.0647149384021759, 0.3575912117958069, 0.05881068855524063, 0.002962433955727127, -0.010014902167313267, -0.004279799306231753
53291, 1.484278678894043, -1.5351308584213257, -1.1596213579177856, -0.026145227253437042, 0.025764545425772667, 1.0015168190002441, 0.28980255126953125, 9362.0, 28835.0, 32767.0, 9362.0, 0.0, 8.211570739746094, -0.06478189677000046, 0.35764116048812866, 0.05886964127421379, 0.021682236266064404, -0.051272351605803124, -0.008087682062667807
53301, 1.4831782579421997, -1.5353814363479614, -1.1607568264007568, -0.02505287528038025, 0.025796547532081604, 1.002487063407898, 0.28980255126953125, 9362.0, 28835.0, 32767.0, 9362.0, 0.0, 8.211570739746094, -0.06477534770965576, 0.35763365030288696, 0.058894116431474686, 0.026230375376482637, -0.05737121119210542, -0.007057620475447705
53311, 1.4821500778198242, -1.5357683897018433, -1.160018801689148, -0.025716044008731842, 0.024746980518102646, 0.9996049404144287, 0.2351226806640625, 9362.0, 28835.0, 32767.0, 9362.0, 0.0, 8.211570739746094, -0.06477456539869308, 0.35764646530151367, 0.05886170640587807, 0.023727146028316097, -0.052225945380683925, -0.0076757819108247026
53321, 1.4803919792175293, -1.5342289209365845, -1.161128282546997, -0.02581608109176159, 0.024978511035442352, 0.9994866847991943, 0.2351226806640625, 9362.0, 28835.0, 32767.0, 9362.0, 0.0, 8.211570739746094, -0.06470891833305359, 0.35757309198379517, 0.058831434696912766, 0.0009259648381051565, -0.025372200809357537, -0.009426292941967429
53331, 1.481684684753418, -1.5352848768234253, -1.1598801612854004, -0.025268584489822388, 0.026275034993886948, 0.9999194145202637, 0.26520538330078125, 9362.0, 28835.0, 32767.0, 9362.0, 0.0, 8.211570739746094, -0.06479106098413467, 0.3576410412788391, 0.058861009776592255, 0.02080683970189937, -0.049280654844920946, -0.011055289754445178
53341, 1.4831032752990723, -1.536291241645813, -1.1604664325714111, -0.02649792470037937, 0.02814013510942459, 1.0015490055084229, 0.26520538330078125, 9362.0, 28835.0, 32767.0, 9362.0, 0.0, 8.211570739746094, -0.06470747292041779, 0.3575688302516937, 0.05882512778043747, 0.0003134703709469803, -0.027913891647159517, -0.010834890785177449
53351, 1.4836477041244507, -1.5384036302566528, -1.161873459815979, -0.027041921392083168, 0.026199305430054665, 1.0004721879959106, 0.218719482421875, 9362.0, 28835.0, 32767.0, 9362.0, 0.0, 8.211570739746094, -0.06478340178728104, 0.35764461755752563, 0.05886726826429367, 0.015598799066060735, -0.040025714030917925, -0.015491197400635435
53361, 1.4834392070770264, -1.5377991199493408, -1.1628680229187012, -0.026056811213493347, 0.024166513234376907, 0.9988130927085876, 0.218719482421875, 9362.0, 28835.0, 32767.0, 9362.0, 0.0, 8.211570739746094, -0.06477590650320053, 0.35764074325561523, 0.05888746306300163, 0.031248752533584022, -0.05314507658508205, -0.0023320620285549494
53371, 1.4826393127441406, -1.5386968851089478, -1.1629574298858643, -0.025434371083974838, 0.026378992944955826, 0.9996901154518127, 0.25153350830078125, 9362.0, 28835.0, 32767.0, 9362.0, 0.0, 8.211570739746094, -0.06478497385978699, 0.35764002799987793, 0.058850470930337906, 0.0248174096288159, -0.056892277994052165, -0.00576739753953745
53381, 1.4820151329040527, -1.5383546352386475, -1.1638184785842896, -0.026319311931729317, 0.024140886962413788, 1.0003446340560913, 0.25153350830078125, 9362.0, 28835.0, 32767.0, 9362.0, 0.0, 8.211570739746094, -0.06477917730808258, 0.35763677954673767, 0.058870457112789154, 0.018427613428029493, -0.05338617938755874, -0.012428433431149858
53391, 1.4793293476104736, -1.5390788316726685, -1.16480553150177, -0.0263246800750494, 0.02228344976902008, 0.9996676445007324, 0.25426483154296875, 9362.0, 28835.0, 32767.0, 9362.0, 0.0, 8.211570739746094, -0.06470650434494019, 0.3575827181339264, 0.0588250458240509, -0.006539259284283499, -0.01986702066025714, -0.0061084721468225665
53401, 1.4812352657318115, -1.536723017692566, -1.1638754606246948, -0.025446761399507523, 0.02502373978495598, 1.000900149345398, 0.25426483154296875, 9362.0, 28835.0, 32767.0, 9362.0, 0.0, 8.211570739746094, -0.0647074431180954, 0.3575834333896637, 0.05882933363318443, 0.0037430339225518684, -0.019109151045341832, -0.004578558472622491
53411, 1.4812753200531006, -1.5361205339431763, -1.1644552946090698, -0.025053707882761955, 0.02655118517577648, 1.0004658699035645, 0.22145843505859375, 9362.0, 28835.0, 32767.0, 9362.0, 0.0, 8.211570739746094, -0.0647045373916626, 0.35759639739990234, 0.05880986154079437, -0.005188840474079475, -0.022502347448863702, -0.013197684584747604
53421, 1.4824321269989014, -1.536410927772522, -1.1651843786239624, -0.025099586695432663, 0.02572462521493435, 1.0003339052200317, 0.22145843505859375, 9362.0, 28835.0, 32767.0, 9362.0, 0.0, 8.211570739746094, -0.06472070515155792, 0.3575858473777771, 0.05883501097559929, 0.006555928737634767, -0.013481514839298825, -0.01076344184760386
53431, 1.482586145401001, -1.5356532335281372, -1.165104627609253, -0.02493145316839218, 0.026907222345471382, 1.0014958381652832, 0.218719482421875, 9362.0, 28835.0, 32767.0, 9362.0, 0.0, 8.211570739746094, -0.06468202918767929, 0.3575899600982666, 0.058832526206970215, -0.0002853701905713794, -0.024926258122576428, -0.014701920033307052
53441, 1.4813646078109741, -1.5356169939041138, -1.1653034687042236, -0.027270818129181862, 0.025634292513132095, 1.001076579093933, 0.218719482421875, 9362.0, 28835.0, 32767.0, 9362.0, 0.0, 8.211570739746094, -0.0647820234298706, 0.3576355278491974, 0.05888378992676735, 0.025083999129262752, -0.04913472704504329, -0.011659005867852585
53451, 1.4796347618103027, -1.5366299152374268, -1.165615439414978, -0.027144599705934525, 0.025562582537531853, 1.0014207363128662, 0.2406005859375, 9362.0, 28835.0, 32767.0, 9362.0, 0.0, 8.211570739746094, -0.06471339613199234, 0.3575676381587982, 0.058851707726716995, 0.0009480519126849971, -0.017772689307236078, -0.007290518527014341
53461, 1.479475975036621, -1.537009835243225, -1.1650243997573853, -0.02571151778101921, 0.024270828813314438, 0.9993472099304199, 0.2406005859375, 9362.0, 28835.0, 32767.0, 9362.0, 0.0, 8.211570739746094, -0.06478109955787659, 0.35764816403388977, 0.058867186307907104, 0.02098743431018233, -0.043945617258543734, -0.008424762669579899
53471, 1.4796743392944336, -1.536751389503479, -1.1652971506118774, -0.02727951854467392, 0.02554803341627121, 0.9982627630233765, 0.2406005859375, 9362.0, 28835.0, 32767.0, 9362.0, 0.0, 8.211570739746094, -0.06477730721235275, 0.3576323390007019, 0.05886872857809067, 0.024582506571212897, -0.04746940227983032, -0.0035802384020023766
53481, 1.4811062812805176, -1.5364702939987183, -1.1662803888320923, -0.026988446712493896, 0.024609187617897987, 0.9996651411056519, 0.2406005859375, 9362.0, 28835.0, 32767.0, 9362.0, 0.0, 8.211570739746094, -0.06470226496458054, 0.3575875759124756, 0.05884438008069992, -0.015530420771147307, -0.019770175745179586, -0.012747149271610048
53491, 1.4795963764190674, -1.5356463193893433, -1.1670005321502686, -0.025971895083785057, 0.023765455931425095, 1.0006355047225952, 0.2132568359375, 9362.0, 28835.0, 32767.0, 9362.0, 0.0, 8.211570739746094, -0.06478496640920639, 0.35764384269714355, 0.05886606499552727, 0.01881875349352232, -0.05061519796024072, -0.010915483635542985
53501, 1.4796981811523438, -1.5347431898117065, -1.1670124530792236, -0.02605528198182583, 0.02404021844267845, 0.9993265867233276, 0.2132568359375, 9362.0, 28835.0, 32767.0, 9362.0, 0.0, 8.211570739746094, -0.06478169560432434, 0.3576570153236389, 0.05885309725999832, 0.023799775702703627, -0.04476339780842409, 0.0021270584316287026
53511, 1.4801528453826904, -1.5348888635635376, -1.1679632663726807, -0.026813959702849388, 0.02457258477807045, 0.9999885559082031, 0.2132568359375, 9362.0, 28835.0, 32767.0, 9362.0, 0.0, 8.211570739746094, -0.06479289382696152, 0.35764530301094055, 0.058876167982816696, 0.028542491730120512, -0.0474432746089235, -0.010861358829183383
53521, 1.4792814254760742, -1.5343902111053467, -1.1693506240844727, -0.02703828178346157, 0.02624761313199997, 0.9997696280479431, 0.2132568359375, 9362.0, 28835.0, 32767.0, 9362.0, 0.0, 8.211570739746094, -0.06479224562644958, 0.35762882232666016, 0.058856334537267685, 0.0198358959317904, -0.04572478080592646, -0.010799613855503957
53531, 1.479676604270935, -1.5349165201187134, -1.1701958179473877, -0.0263273473829031, 0.025488199666142464, 0.9991050958633423, 0.26793670654296875, 9362.0, 28835.0, 32767.0, 9362.0, 0.0, 8.211570739746094, -0.06478280574083328, 0.35763391852378845, 0.05885794386267662, 0.014391981180235752, -0.048298053678024644, -0.007794617306977302
53541, 1.4791576862335205, -1.5355991125106812, -1.1702929735183716, -0.027628038078546524, 0.02653590589761734, 1.001319169998169, 0.26793670654296875, 9362.0, 28835.0, 32767.0, 9362.0, 0.0, 8.211570739746094, -0.06479320675134659, 0.3576391041278839, 0.05888732150197029, 0.017458239341412603, -0.061505431830596535, -0.02414833206855829
53551, 1.4786697626113892, -1.5362610816955566, -1.1710727214813232, -0.026877695694565773, 0.02594585344195366, 1.001828670501709, 0.20778656005859375, 9362.0, 28835.0, 32767.0, 9362.0, 0.0, 8.211570739746094, -0.06479006260633469, 0.357647180557251, 0.058853115886449814, 0.022832996750342418, -0.04474494843216803, -0.018337304031597758
53561, 1.4777661561965942, -1.535775899887085, -1.1709376573562622, -0.024658139795064926, 0.02534649148583412, 1.0018351078033447, 0.20778656005859375, 9362.0, 28835.0, 32767.0, 9362.0, 0.0, 8.211570739746094, -0.06477411091327667, 0.3576218783855438, 0.05887577310204506, 0.011473674461798023, -0.044553946990390614, -0.019701445751709776
53571, 1.4769583940505981, -1.5361374616622925, -1.1711846590042114, -0.02501372992992401, 0.02518240548670292, 1.0013580322265625, 0.16403961181640625, 9362.0, 28835.0, 32767.0, 9362.0, 0.0, 8.211570739746094, -0.06470897793769836, 0.357572466135025, 0.0588175468146801, -0.002505039094645706, -0.01906404166959419, -0.017085297995918673
53581, 1.4762120246887207, -1.5341579914093018, -1.171039342880249, -0.023604286834597588, 0.02504045143723488, 1.0007038116455078, 0.16403961181640625, 9362.0, 28835.0, 32767.0, 9362.0, 0.0, 8.211570739746094, -0.06479795277118683, 0.35762929916381836, 0.05885251611471176, 0.01640024077122913, -0.045527156107766587, -0.006731692044403094
53591, 1.4759962558746338, -1.5350492000579834, -1.1724742650985718, -0.02638900652527809, 0.024666916579008102, 1.0001591444015503, 0.19684600830078125, 9362.0, 28835.0, 32767.0, 9362.0, 0.0, 8.211570739746094, -0.0647866502404213, 0.35762685537338257, 0.05886025354266167, 0.03164655183219262, -0.05317861104001054, -0.010262746182720925
53601, 1.4759751558303833, -1.5332114696502686, -1.172763705253601, -0.02588464319705963, 0.024911748245358467, 0.9995779991149902, 0.19684600830078125, 9362.0, 28835.0, 32767.0, 9362.0, 0.0, 8.211570739746094, -0.06479566544294357, 0.35763469338417053, 0.05886799097061157, 0.02340192273678568, -0.04454389307875317, -0.01707005911619589
53611, 1.476300597190857, -1.5327062606811523, -1.1718717813491821, -0.025919046252965927, 0.025265701115131378, 0.9990025758743286, 0.1421661376953125, 9362.0, 28835.0, 32767.0, 9362.0, 0.0, 8.211570739746094, -0.06478343904018402, 0.3576416075229645, 0.05886514112353325, 0.022991256476976925, -0.04116079718167498, -0.012544009065579216
53621, 1.4758464097976685, -1.5320287942886353, -1.1730791330337524, -0.02746974676847458, 0.02543560601770878, 0.9985940456390381, 0.1421661376953125, 9362.0, 28835.0, 32767.0, 9362.0, 0.0, 8.211570739746094, -0.0647871270775795, 0.3576291501522064, 0.058860909193754196, 0.02033400837039736, -0.04128951549930093, -0.01569285606084408
53631, 1.4745471477508545, -1.531257152557373, -1.174474835395813, -0.026567067950963974, 0.02584400586783886, 0.9995927810668945, 0.14764404296875, 9362.0, 28835.0, 32767.0, 9362.0, 0.0, 8.211570739746094, -0.06478893011808395, 0.3576272130012512, 0.05887904763221741, 0.01617942236495299, -0.04254949347614456, -0.020159547807858655
53641, 1.4748504161834717, -1.5308860540390015, -1.1747078895568848, -0.025510398671030998, 0.025833874940872192, 0.9991356134414673, 0.14764404296875, 9362.0, 28835.0, 32767.0, 9362.0, 0.0, 8.211570739746094, -0.06478969752788544, 0.3576349914073944, 0.05886968970298767, 0.01806380380008964, -0.05423227376522277, -0.012898825875095875
53651, 1.4762396812438965, -1.5310317277908325, -1.176776647567749, -0.025618046522140503, 0.026483546942472458, 1.0001683235168457, 0.20505523681640625, 9362.0, 28835.0, 32767.0, 9362.0, 0.0, 8.211570739746094, -0.06478869169950485, 0.3576417863368988, 0.05887559801340103, 0.020675583268410163, -0.048545255221625894, -0.006649838477804237
53661, 1.4761461019515991, -1.5320860147476196, -1.178647518157959, -0.02740342542529106, 0.025960130617022514, 1.0004010200500488, 0.20505523681640625, 9362.0, 28835.0, 32767.0, 9362.0, 0.0, 8.211570739746094, -0.06485652923583984, 0.3575761616230011, 0.058779340237379074, 0.04526029122581655, -0.036691486418135355, -0.03124639729286087
53671, 1.477368950843811, -1.5317262411117554, -1.1788185834884644, -0.026154521852731705, 0.026852427050471306, 1.0027542114257812, 0.232391357421875, 9362.0, 28835.0, 32767.0, 9362.0, 0.0, 8.211570739746094, -0.06479346007108688, 0.3576365113258362, 0.05885515734553337, 0.02979415122992093, -0.05422246577083456, -0.010362050081323718
53681, 1.4759591817855835, -1.5309139490127563, -1.1783857345581055, -0.02439536340534687, 0.026562228798866272, 1.0006157159805298, 0.232391357421875, 9362.0, 28835.0, 32767.0, 9362.0, 0.0, 8.211570739746094, -0.06478925049304962, 0.3576394021511078, 0.058852389454841614, 0.02981976086528652, -0.04940436978873208, -0.0069252228604123
53691, 1.4774720668792725, -1.5314610004425049, -1.1791616678237915, -0.02568994089961052, 0.024987488985061646, 1.0002753734588623, 0.2570037841796875, 9362.0, 28835.0, 32767.0, 9362.0, 0.0, 8.211570739746094, -0.06477619707584381, 0.35763320326805115, 0.05888357385993004, 0.021201073404330324, -0.048444200314804675, -0.00870507567818707
53701, 1.4772281646728516, -1.5340498685836792, -1.178859829902649, -0.0272684283554554, 0.027234714478254318, 1.0000512599945068, 0.2570037841796875, 9362.0, 28835.0, 32767.0, 9362.0, 0.0, 8.211570739746094, -0.06470959633588791, 0.3575819134712219, 0.05882731452584267, 0.0042372522732259405, -0.022017471050986615, -0.01902203703021584
53711, 1.4775981903076172, -1.5332989692687988, -1.1788188219070435, -0.02681662142276764, 0.02632470242679119, 1.0000532865524292, 0.22145843505859375, 9362.0, 28835.0, 32767.0, 9362.0, 0.0, 8.211570739746094, -0.06478399783372879, 0.3576259911060333, 0.058861784636974335, 0.01600262250036753, -0.03895511058485113, -0.017208662063942573
53721, 1.478128433227539, -1.5347554683685303, -1.1800262928009033, -0.027056081220507622, 0.025203023105859756, 1.0003584623336792, 0.22145843505859375, 9362.0, 28835.0, 32767.0, 9362.0, 0.0, 8.211570739746094, -0.06478239595890045, 0.3576357960700989, 0.058846380561590195, 0.027018436609286968, -0.05242514824598743, -0.004859234512963566
53731, 1.479137659072876, -1.5352003574371338, -1.179466962814331, -0.027809198945760727, 0.026263361796736717, 1.001521110534668, 0.20778656005859375, 9362.0, 28835.0, 32767.0, 9362.0, 0.0, 8.211570739746094, -0.0647306963801384, 0.35758844017982483, 0.05882434546947479, -0.009752897515044536, -0.023485838219698962, -0.01575674153799907
53741, 1.4786819219589233, -1.5369831323623657, -1.1810747385025024, -0.0262133851647377, 0.02506653405725956, 1.0031516551971436, 0.20778656005859375, 9362.0, 28835.0, 32767.0, 9362.0, 0.0, 8.211570739746094, -0.06477782875299454, 0.3576326072216034, 0.05885763466358185, 0.022044494028973956, -0.05066327284691852, -0.010981380295135243
53751, 1.4796792268753052, -1.537321925163269, -1.1810907125473022, -0.024934783577919006, 0.025541692972183228, 1.0022211074829102, 0.26520538330078125, 9362.0, 28835.0, 32767.0, 9362.0, 0.0, 8.211570739746094, -0.06479209661483765, 0.3576352894306183, 0.05884726345539093, 0.0221749290876617, -0.05263853566984267, -0.008664677571065137
53761, 1.4789741039276123, -1.5384091138839722, -1.1819130182266235, -0.027065033093094826, 0.026460746303200722, 1.000609040260315, 0.26520538330078125, 9362.0, 28835.0, 32767.0, 9362.0, 0.0, 8.211570739746094, -0.06473718583583832, 0.35760369896888733, 0.05891401320695877, -0.0006018597508425029, -0.012881495726361436, -0.005245517622492818
53771, 1.4798346757888794, -1.5392025709152222, -1.1818923950195312, -0.025867853313684464, 0.025261525064706802, 1.0003042221069336, 0.40464019775390625, 9362.0, 28835.0, 32767.0, 9362.0, 0.0, 8.211570739746094, -0.06471440196037292, 0.3575701415538788, 0.058812327682971954, -0.00047373521345891794, -0.020152268431132825, -0.023653288334754947
53781, 1.4797228574752808, -1.5386091470718384, -1.182257890701294, -0.026817236095666885, 0.02459893748164177, 0.9975984692573547, 0.40464019775390625, 9362.0, 28835.0, 32767.0, 9362.0, 0.0, 8.211570739746094, -0.06477469950914383, 0.3576415479183197, 0.0588521845638752, 0.023066547087571117, -0.047332767285212185, -0.008962199587410574
53791, 1.4792604446411133, -1.5394506454467773, -1.1839171648025513, -0.02655668929219246, 0.025580110028386116, 0.9992642402648926, 0.4347076416015625, 9362.0, 28835.0, 32767.0, 9362.0, 0.0, 8.211570739746094, -0.0647914707660675, 0.3576388955116272, 0.05887819454073906, 0.020097971783763553, -0.047057178703482805, -0.015253022103756626
53801, 1.4784733057022095, -1.5395392179489136, -1.1849631071090698, -0.025713985785841942, 0.02533981017768383, 1.0011639595031738, 0.4347076416015625, 9362.0, 28835.0, 32767.0, 9362.0, 0.0, 8.211570739746094, -0.06477684527635574, 0.35763272643089294, 0.058880098164081573, 0.02340673251158482, -0.04954711284923974, -0.0032196691513067224
53811, 1.4791799783706665, -1.5404231548309326, -1.1848676204681396, -0.025208810344338417, 0.02676457166671753, 1.0017203092575073, 0.37183380126953125, 9362.0, 28835.0, 32767.0, 9362.0, 0.0, 8.211570739746094, -0.06479258835315704, 0.3576407730579376, 0.05886830389499664, 0.024837025531602715, -0.0508040730240964, -0.006505669203712769
