timeTick, roll, pitch, yaw, accX, accY, accZ, baro, m1, m2, m3, m4, thrust, vbat, otX0, otY0, otZ0, otRoll0, otPitch0, otYaw0
238792, 0.6170981526374817, -1.000895619392395, -13.259791374206543, 0, 0, 0, 0, 0, 0, 0, 0, 0, 0, -0.17792093753814697, 0.22283925116062164, 0.06000759080052376, 0.011926549661635163, -0.015882767248797336, 0.03675842379298966
238802, 0.6173999309539795, -0.9994906783103943, -13.26050090789795, -0.01898171752691269, 0.012170474976301193, 1.0010175704956055, 0.724517822265625, 9362.0, 28835.0, 32767.0, 9362.0, 0.0, 8.33057975769043, -0.17792922258377075, 0.22285065054893494, 0.060010697692632675, 0.013932877964543745, -0.019901307409696756, 0.03463773734800015
238812, 0.6158189177513123, -0.9971705675125122, -13.26120376586914, -0.014209577813744545, 0.01079657580703497, 1.0024217367172241, 0.724517822265625, 9362.0, 28835.0, 32767.0, 9362.0, 0.0, 8.33057975769043, -0.17810402810573578, 0.22300449013710022, 0.06034126132726669, 0.058986198794981966, -0.06323463062412316, 0.03345034820807155
238822, 0.6165054440498352, -0.9948441386222839, -13.261266708374023, -0.013985163532197475, 0.0106150321662426, 1.0019035339355469, 0.6999053955078125, 9362.0, 28835.0, 32767.0, 9362.0, 0.0, 8.33057975769043, -0.17793430387973785, 0.2228449583053589, 0.06000824645161629, 0.00745283641875446, -0.023950650073885527, 0.03691476523979821
238832, 0.6154878735542297, -0.9945680499076843, -13.263311386108398, -0.0148989362642169, 0.00974873173981905, 1.0011006593704224, 0.6999053955078125, 9362.0, 28835.0, 32767.0, 9362.0, 0.0, 8.33057975769043, -0.17791898548603058, 0.22283536195755005, 0.06001383066177368, 0.019107609331267282, -0.008126484247100052, 0.036802264250062514
238842, 0.6154444217681885, -0.9954317212104797, -13.26345443725586, -0.01638181507587433, 0.010236255824565887, 1.002331018447876, 0.72998046875, 9362.0, 28835.0, 32767.0, 9362.0, 0.0, 8.33057975769043, -0.17793312668800354, 0.2228495478630066, 0.06001873314380646, 0.016030873782336797, -0.021719578600311706, 0.03091381872088537
238852, 0.6146748661994934, -0.9954707026481628, -13.26411247253418, -0.018343258649110794, 0.00969855859875679, 1.002854585647583, 0.72998046875, 9362.0, 28835.0, 32767.0, 9362.0, 0.0, 8.33057975769043, -0.17792768776416779, 0.2228516787290573, 0.060008756816387177, 0.023390652927411628, -0.014431662986964966, 0.03579237237779576
238862, 0.6146386861801147, -0.9956594705581665, -13.264423370361328, -0.01694035530090332, 0.008889568969607353, 1.003081202507019, 0.7573165893554688, 9362.0, 28835.0, 32767.0, 9362.0, 0.0, 8.310744285583496, -0.17791852355003357, 0.2228565365076065, 0.06000062823295593, 0.016476159915012785, -0.022422388919835612, 0.03563670201250673
238872, 0.6154395937919617, -0.9954348802566528, -13.26446533203125, -0.015158919617533684, 0.009694350883364677, 1.0025776624679565, 0.7573165893554688, 9362.0, 28835.0, 32767.0, 9362.0, 0.0, 8.33057975769043, -0.17793188989162445, 0.2228386104106903, 0.06000445783138275, 0.012400327390594032, -0.019884447390666082, 0.03449287049655245
238882, 0.6152428984642029, -0.9967036843299866, -13.265195846557617, -0.017710590735077858, 0.009313741698861122, 1.0026990175247192, 0.70263671875, 9362.0, 28835.0, 32767.0, 9362.0, 0.0, 8.310744285583496, -0.17792928218841553, 0.22284828126430511, 0.06001659110188484, 0.009982451367638012, -0.016604901841731134, 0.02371639171611576
238892, 0.6168642044067383, -0.9978312849998474, -13.264836311340332, -0.01771925762295723, 0.011271228082478046, 1.0019689798355103, 0.70263671875, 9362.0, 28835.0, 32767.0, 9362.0, 0.0, 8.33057975769043, -0.17810873687267303, 0.22299033403396606, 0.06033134460449219, 0.054469537088962315, -0.062456118611748934, 0.038036260518884236
238902, 0.6166279911994934, -0.998700737953186, -13.265222549438477, -0.016233569011092186, 0.011483479291200638, 0.9999650716781616, 0.697174072265625, 9362.0, 28835.0, 32767.0, 9362.0, 0.0, 8.33057975769043, -0.17793035507202148, 0.2228439301252365, 0.06000601872801781, 0.014090696224074392, -0.019825745932536165, 0.03340230887360827
238912, 0.6174028515815735, -0.9999709129333496, -13.266488075256348, -0.019069083034992218, 0.011182179674506187, 1.0014286041259766, 0.697174072265625, 9362.0, 28835.0, 32767.0, 9362.0, 0.0, 8.33057975769043, -0.17792309820652008, 0.22283460199832916, 0.06001857668161392, 0.017911639430783933, -0.017707632270287377, 0.03247307323243417
238922, 0.6177783608436584, -1.0015918016433716, -13.267029762268066, -0.018442217260599136, 0.00982308853417635, 1.0021408796310425, 0.6807632446289062, 9362.0, 28835.0, 32767.0, 9362.0, 0.0, 8.33057975769043, -0.17792505025863647, 0.2228485345840454, 0.06000646948814392, 0.015222588094171693, -0.014276819731833257, 0.03524017633117852
238932, 0.6168938279151917, -1.0023213624954224, -13.267245292663574, -0.016892582178115845, 0.011302441358566284, 1.001818299293518, 0.6807632446289062, 9362.0, 28835.0, 32767.0, 9362.0, 0.0, 8.33057975769043, -0.1779153048992157, 0.2228427678346634, 0.05999850109219551, 0.024918048201096034, -0.01518954674659767, 0.029923176856073316
238942, 0.6171364784240723, -1.002514362335205, -13.268620491027832, -0.0171697698533535, 0.009925679303705692, 1.0011647939682007, 0.6561660766601562, 9362.0, 28835.0, 32767.0, 9362.0, 0.0, 8.33057975769043, -0.17794276773929596, 0.2228667140007019, 0.06000139191746712, 0.019773926119929286, -0.016892732887100692, 0.035439789235621744
238952, 0.6170786619186401, -1.0040851831436157, -13.26779556274414, -0.01774793304502964, 0.011072905734181404, 0.9991889595985413, 0.6561660766601562, 9362.0, 28835.0, 32767.0, 9362.0, 0.0, 8.33057975769043, -0.17809611558914185, 0.2229919582605362, 0.060339078307151794, 0.052505761281306504, -0.060375118577098874, 0.02622545980477481
238962, 0.6159847378730774, -1.004810094833374, -13.268996238708496, -0.017917703837156296, 0.012099115177989006, 1.0013158321380615, 0.6124191284179688, 9362.0, 28835.0, 32767.0, 9362.0, 0.0, 8.33057975769043, -0.17792800068855286, 0.22285407781600952, 0.060012102127075195, 0.016789532737945968, -0.019702818804177014, 0.02648459125899005
238972, 0.6164100766181946, -1.0051941871643066, -13.269340515136719, -0.017460467293858528, 0.011288118548691273, 1.0039159059524536, 0.6124191284179688, 9362.0, 28835.0, 32767.0, 9362.0, 0.0, 8.33057975769043, -0.17793317139148712, 0.22285199165344238, 0.060028329491615295, 0.017101103911746553, -0.016583459565708836, 0.038452348147085195
238982, 0.6165053248405457, -1.0053842067718506, -13.270590782165527, -0.01674671098589897, 0.010937263257801533, 1.0009853839874268, 0.5960159301757812, 9362.0, 28835.0, 32767.0, 9362.0, 0.0, 8.33057975769043, -0.17792974412441254, 0.22283366322517395, 0.05998919531702995, 0.0141669158516837, -0.009140812791343933, 0.0285516213850722
238992, 0.6162875294685364, -1.0062671899795532, -13.272732734680176, -0.014878759160637856, 0.009872058406472206, 1.0017386674880981, 0.5960159301757812, 9362.0, 28835.0, 32767.0, 9362.0, 0.0, 8.33057975769043, -0.1779194474220276, 0.22284415364265442, 0.060009490698575974, 0.009506443988821608, -0.009595214521482376, 0.026700974290251703
239002, 0.6170730590820312, -1.0054203271865845, -13.27280330657959, -0.01544087752699852, 0.010552214458584785, 1.0024138689041138, 0.6725692749023438, 9362.0, 28835.0, 32767.0, 9362.0, 0.0, 8.33057975769043, -0.1779310256242752, 0.22283878922462463, 0.06002266705036163, 0.015109259025170376, -0.02000736182583296, 0.03255004267472693
239012, 0.6163924932479858, -1.0060646533966064, -13.273140907287598, -0.0150980893522501, 0.009584695100784302, 1.0035226345062256, 0.6725692749023438, 9362.0, 28835.0, 32767.0, 9362.0, 0.0, 8.33057975769043, -0.17793293297290802, 0.22284825146198273, 0.06001189723610878, 0.017840137542818758, -0.014700761337820722, 0.03663228345718463
239022, 0.6148931384086609, -1.0075500011444092, -13.273900032043457, -0.016812553629279137, 0.010367322713136673, 1.0036914348602295, 0.6588973999023438, 9362.0, 28835.0, 32767.0, 9362.0, 0.0, 8.33057975769043, -0.17793922126293182, 0.22285056114196777, 0.060015492141246796, 0.016149550883384167, -0.026008604675837432, 0.03148435962526626
239032, 0.6150014996528625, -1.007393479347229, -13.273866653442383, -0.015572596341371536, 0.01060614362359047, 1.0013275146484375, 0.6588973999023438, 9362.0, 28835.0, 32767.0, 9362.0, 0.0, 8.33057975769043, -0.1779354214668274, 0.22284525632858276, 0.06003706157207489, 0.022501683492743466, -0.016408861896536564, 0.034649741584112444
239042, 0.6137914657592773, -1.0082257986068726, -13.276798248291016, -0.015830323100090027, 0.011253640055656433, 1.0026795864105225, 0.7518539428710938, 9362.0, 28835.0, 32767.0, 9362.0, 0.0, 8.33057975769043, -0.1779199093580246, 0.22285012900829315, 0.059985626488924026, 0.015044530334439287, -0.019445377475278747, 0.029371535375532574
239052, 0.6146463751792908, -1.007239818572998, -13.277437210083008, -0.01710938848555088, 0.01049247570335865, 1.0033199787139893, 0.7518539428710938, 9362.0, 28835.0, 32767.0, 9362.0, 0.0, 8.33057975769043, -0.17808471620082855, 0.222983255982399, 0.06031538173556328, 0.04878540165372265, -0.05948252020527889, 0.02448482230441433
239062, 0.6146454215049744, -1.0071732997894287, -13.278270721435547, -0.017954867333173752, 0.011062540113925934, 1.005018711090088, 0.7545852661132812, 9362.0, 28835.0, 32767.0, 9362.0, 0.0, 8.33057975769043, -0.17790520191192627, 0.2228373885154724, 0.060000162571668625, 0.009714685045532339, -0.012316716284431095, 0.025008553523078667
239072, 0.6161618232727051, -1.0077729225158691, -13.277864456176758, -0.016966920346021652, 0.009956485591828823, 0.9996907711029053, 0.7545852661132812, 9362.0, 28835.0, 32767.0, 9362.0, 0.0, 8.33057975769043, -0.17792807519435883, 0.22282329201698303, 0.05998578667640686, 0.02444020896436751, -0.009715704080264231, 0.031154693921348342
239082, 0.6154529452323914, -1.0089465379714966, -13.278685569763184, -0.016599219292402267, 0.010764476843178272, 1.000537395477295, 0.803802490234375, 9362.0, 28835.0, 32767.0, 9362.0, 0.0, 8.33057975769043, -0.1779276728630066, 0.2228413075208664, 0.05999678745865822, 0.012011013467077307, -0.019159592162253603, 0.03202901682292465
239092, 0.6149174571037292, -1.0087138414382935, -13.279248237609863, -0.016201116144657135, 0.00940838921815157, 1.0028605461120605, 0.803802490234375, 9362.0, 28835.0, 32767.0, 9362.0, 0.0, 8.33057975769043, -0.1779148429632187, 0.22282324731349945, 0.05996820330619812, 0.017927261469651, -0.012424522832986895, 0.026016800999408396
239102, 0.6152234077453613, -1.0064268112182617, -13.28014087677002, -0.016582157462835312, 0.010237390175461769, 1.0028648376464844, 0.7682571411132812, 9362.0, 28835.0, 32767.0, 9362.0, 0.0, 8.33057975769043, -0.1779288500547409, 0.22284464538097382, 0.059982165694236755, 0.018617160639770442, -0.009400238181456189, 0.029712363001394227
239112, 0.6150531768798828, -1.0050588846206665, -13.28055477142334, -0.017676513642072678, 0.010899722576141357, 1.0010093450546265, 0.7682571411132812, 9362.0, 28835.0, 32767.0, 9362.0, 0.0, 8.33057975769043, -0.1779283732175827, 0.22283951938152313, 0.059988800436258316, 0.020463416547369013, -0.01624157008785687, 0.028286040070558363
239122, 0.6149745583534241, -1.0058525800704956, -13.281696319580078, -0.018622126430273056, 0.011099625378847122, 0.9993424415588379, 0.82293701171875, 9362.0, 28835.0, 32767.0, 9362.0, 0.0, 8.310744285583496, -0.17792712152004242, 0.22283734381198883, 0.060003139078617096, 0.0003559287029370242, -0.02121982265273914, 0.02599819494580829
239132, 0.6150090098381042, -1.0077760219573975, -13.282282829284668, -0.016782814636826515, 0.010786055587232113, 1.0017603635787964, 0.82293701171875, 9362.0, 28835.0, 32767.0, 9362.0, 0.0, 8.33057975769043, -0.17793598771095276, 0.22284191846847534, 0.059990350157022476, 0.017204611636276172, -0.017748606985890092, 0.031025181527922163
239142, 0.6144106984138489, -1.0089499950408936, -13.283392906188965, -0.01599278673529625, 0.009934712201356888, 1.0031667947769165, 0.9405059814453125, 9362.0, 28835.0, 32767.0, 9362.0, 0.0, 8.33057975769043, -0.17792531847953796, 0.2228425145149231, 0.05997975543141365, 0.017557038725709604, -0.01607258058811567, 0.03677128021045314
239152, 0.6140469908714294, -1.009432077407837, -13.284558296203613, -0.016062118113040924, 0.009761132299900055, 1.0033832788467407, 0.9405059814453125, 9362.0, 28835.0, 32767.0, 9362.0, 0.0, 8.33057975769043, -0.17793484032154083, 0.22283005714416504, 0.06002023071050644, 0.02093132979437452, -0.022250276842953554, 0.025842224912096638
239162, 0.6126996278762817, -1.0107781887054443, -13.284905433654785, -0.015727566555142403, 0.010042776353657246, 1.0037697553634644, 0.8858261108398438, 9362.0, 28835.0, 32767.0, 9362.0, 0.0, 8.33057975769043, -0.17794062197208405, 0.22285759449005127, 0.0600174255669117, 0.01570983076058039, -0.022155339039500177, 0.02908076633653434
239172, 0.6136505603790283, -1.0108904838562012, -13.286898612976074, -0.01565464958548546, 0.011092502623796463, 1.0016577243804932, 0.8858261108398438, 9362.0, 28835.0, 32767.0, 9362.0, 0.0, 8.33057975769043, -0.17792046070098877, 0.22283567488193512, 0.059977684170007706, 0.015661853075205304, -0.023632791744176984, 0.02645607349035638
239182, 0.6130558252334595, -1.011935830116272, -13.2872314453125, -0.017236091196537018, 0.010503103025257587, 1.0028177499771118, 0.8448104858398438, 9362.0, 28835.0, 32767.0, 9362.0, 0.0, 8.33057975769043, -0.17793633043766022, 0.2228393852710724, 0.06000850722193718, 0.01341534816061216, -0.023926722259091093, 0.03118043195438103
239192, 0.6129335165023804, -1.0112037658691406, -13.288768768310547, -0.015795603394508362, 0.01009996235370636, 1.000539779663086, 0.8448104858398438, 9362.0, 28835.0, 32767.0, 9362.0, 0.0, 8.33057975769043, -0.177943155169487, 0.22282756865024567, 0.06000981107354164, 0.011885224342064332, -0.02643079987538499, 0.024283710094058133
239202, 0.6113771796226501, -1.0116029977798462, -13.289857864379883, -0.016812410205602646, 0.010599790140986443, 1.0012961626052856, 0.8119964599609375, 9362.0, 28835.0, 32767.0, 9362.0, 0.0, 8.33057975769043, -0.17810212075710297, 0.22298774123191833, 0.060326896607875824, 0.047032013859462075, -0.0644462359122997, 0.034436145017286895
239212, 0.6107979416847229, -1.0112966299057007, -13.290534019470215, -0.014309730380773544, 0.01173415407538414, 1.0023539066314697, 0.8119964599609375, 9362.0, 28835.0, 32767.0, 9362.0, 0.0, 8.33057975769043, -0.17792467772960663, 0.2228412628173828, 0.059992715716362, 0.012270620811871299, -0.018629377771276268, 0.028058983011188376
239222, 0.610075056552887, -1.0113683938980103, -13.292266845703125, -0.014363724738359451, 0.01057389285415411, 1.0012911558151245, 0.80926513671875, 9362.0, 28835.0, 32767.0, 9362.0, 0.0, 8.33057975769043, -0.17793801426887512, 0.222833052277565, 0.05997764691710472, 0.017508436686458566, -0.011843279506393856, 0.039147986161846574
239232, 0.6089799404144287, -1.0136042833328247, -13.292143821716309, -0.014777417294681072, 0.008585117757320404, 1.0017967224121094, 0.80926513671875, 9362.0, 28835.0, 32767.0, 9362.0, 0.0, 8.33057975769043, -0.17808674275875092, 0.22298012673854828, 0.06032067909836769, 0.052355538844059836, -0.06175605966203079, 0.024522484608817608
239242, 0.6101142764091492, -1.0143492221832275, -13.292037963867188, -0.0160200372338295, 0.008838750422000885, 1.0009998083114624, 0.72998046875, 9362.0, 28835.0, 32767.0, 9362.0, 0.0, 8.33057975769043, -0.17792901396751404, 0.22284303605556488, 0.06001495569944382, 0.011394079835052105, -0.023391420155462583, 0.02740039256958401
239252, 0.6108214259147644, -1.0138816833496094, -13.292156219482422, -0.01926732435822487, 0.011124948970973492, 1.0016108751296997, 0.72998046875, 9362.0, 28835.0, 32767.0, 9362.0, 0.0, 8.33057975769043, -0.17792798578739166, 0.22285401821136475, 0.06001419201493263, 0.016140428782365688, -0.029479341837173934, 0.03503728387569989
239262, 0.6097059845924377, -1.0144070386886597, -13.29340648651123, -0.0192610714584589, 0.01210862584412098, 1.0031213760375977, 0.7272491455078125, 9362.0, 28835.0, 32767.0, 9362.0, 0.0, 8.33057975769043, -0.177934929728508, 0.22284750640392303, 0.05999424308538437, 0.019894996706438867, -0.02477493090327698, 0.040170021668694426
239272, 0.6086298823356628, -1.015516996383667, -13.293190956115723, -0.017220091074705124, 0.009360573254525661, 1.0022459030151367, 0.7272491455078125, 9362.0, 28835.0, 32767.0, 9362.0, 0.0, 8.33057975769043, -0.17792144417762756, 0.2228410840034485, 0.0600275956094265, 0.016427141017908885, -0.009313180912442931, 0.022313753099766687
239282, 0.6089444160461426, -1.0167603492736816, -13.293314933776855, -0.017434829846024513, 0.010821056552231312, 1.0014179944992065, 0.710845947265625, 9362.0, 28835.0, 32767.0, 9362.0, 0.0, 8.33057975769043, -0.1779339462518692, 0.2228444367647171, 0.0600057989358902, 0.011132910571652131, -0.01676742292227118, 0.032958306999233744
239292, 0.6077948212623596, -1.0156080722808838, -13.295077323913574, -0.01799321174621582, 0.010463537648320198, 1.001125454902649, 0.710845947265625, 9362.0, 28835.0, 32767.0, 9362.0, 0.0, 8.33057975769043, -0.17794589698314667, 0.222846120595932, 0.060027170926332474, 0.01338982221318158, -0.024802731491064378, 0.04280532224928676
239302, 0.6085754632949829, -1.01642644405365, -13.29584789276123, -0.01611676625907421, 0.010151803493499756, 1.0017471313476562, 0.6780319213867188, 9362.0, 28835.0, 32767.0, 9362.0, 0.0, 8.33057975769043, -0.17793871462345123, 0.22285306453704834, 0.06002328544855118, 0.02093502369578021, -0.020364037432528903, 0.03160639431911471
239312, 0.610034167766571, -1.0174866914749146, -13.295943260192871, -0.016081416979432106, 0.01015816256403923, 1.0030441284179688, 0.6780319213867188, 9362.0, 28835.0, 32767.0, 9362.0, 0.0, 8.33057975769043, -0.1779334843158722, 0.2228509783744812, 0.06002099812030792, 0.025311292945930985, -0.020396883458602133, 0.03834359596546043
239322, 0.6103523969650269, -1.0165133476257324, -13.296915054321289, -0.014878867194056511, 0.010827112011611462, 1.0018601417541504, 0.6999053955078125, 9362.0, 28835.0, 32767.0, 9362.0, 0.0, 8.33057975769043, -0.17811167240142822, 0.2229968011379242, 0.06032738834619522, 0.051488749787151844, -0.06296805520730686, 0.03707800668843071
239332, 0.6098621487617493, -1.015283465385437, -13.296868324279785, -0.017087019979953766, 0.012908164411783218, 1.0008033514022827, 0.6999053955078125, 9362.0, 28835.0, 32767.0, 9362.0, 0.0, 8.33057975769043, -0.17793059349060059, 0.22286085784435272, 0.06000478193163872, 0.021130106612988652, -0.01962509460571482, 0.03277104306988762
239342, 0.6098262667655945, -1.01539146900177, -13.297125816345215, -0.018586546182632446, 0.012217218056321144, 1.0005178451538086, 0.7272491455078125, 9362.0, 28835.0, 32767.0, 9362.0, 0.0, 8.33057975769043, -0.1779271960258484, 0.22285905480384827, 0.060002751648426056, 0.014257789752699488, -0.013906271507579504, 0.04028870689439961
239352, 0.6098365783691406, -1.0153858661651611, -13.298026084899902, -0.016357362270355225, 0.01000396627932787, 1.0019769668579102, 0.7272491455078125, 9362.0, 28835.0, 32767.0, 9362.0, 0.0, 8.33057975769043, -0.17792479693889618, 0.2228396236896515, 0.05999630317091942, 0.010463738788153128, -0.014939047721981069, 0.033519501141588394
239362, 0.6105183959007263, -1.0153666734695435, -13.300008773803711, -0.016868114471435547, 0.0109206922352314, 1.0003411769866943, 0.735443115234375, 9362.0, 28835.0, 32767.0, 9362.0, 0.0, 8.33057975769043, -0.17793160676956177, 0.22285296022891998, 0.06002315506339073, 0.017039677548837295, -0.01950609787414237, 0.0342112289156209
239372, 0.6120700240135193, -1.0152438879013062, -13.301688194274902, -0.016235951334238052, 0.01303128432482481, 1.0015206336975098, 0.735443115234375, 9362.0, 28835.0, 32767.0, 9362.0, 0.0, 8.33057975769043, -0.17793889343738556, 0.22286680340766907, 0.060005560517311096, 0.016213353782381267, -0.020003871731006484, 0.03350351548033598
239382, 0.6113644242286682, -1.0153777599334717, -13.302885055541992, -0.01772565208375454, 0.011374125257134438, 1.0022169351577759, 0.7627944946289062, 9362.0, 28835.0, 32767.0, 9362.0, 0.0, 8.33057975769043, -0.17808948457241058, 0.2229989469051361, 0.06032472476363182, 0.05898838486983412, -0.06464844369980938, 0.030002069121387673
239392, 0.611331045627594, -1.0139029026031494, -13.303740501403809, -0.016150878742337227, 0.008172834292054176, 0.9985241889953613, 0.7627944946289062, 9362.0, 28835.0, 32767.0, 9362.0, 0.0, 8.310744285583496, -0.17792905867099762, 0.22286252677440643, 0.06001421809196472, 0.015706041126618726, -0.021861240831327677, 0.03589989734740332
239402, 0.6106195449829102, -1.0119973421096802, -13.303876876831055, -0.014697992242872715, 0.008380698971450329, 1.000240445137024, 0.7846603393554688, 9362.0, 28835.0, 32767.0, 9362.0, 0.0, 8.310744285583496, -0.17792826890945435, 0.22284653782844543, 0.06000956520438194, 0.01819229399880964, -0.022946986610804743, 0.029204806568131562
239412, 0.6107486486434937, -1.0121428966522217, -13.304581642150879, -0.015853362157940865, 0.011335785500705242, 1.0017906427383423, 0.7846603393554688, 9362.0, 28835.0, 32767.0, 9362.0, 0.0, 8.33057975769043, -0.17793172597885132, 0.22284364700317383, 0.05998539924621582, 0.01970016471802095, -0.0060846183149294575, 0.035770361023217706
239422, 0.6109508275985718, -1.011372447013855, -13.303942680358887, -0.01608104631304741, 0.01044014934450388, 1.001006007194519, 0.7655258178710938, 9362.0, 28835.0, 32767.0, 9362.0, 0.0, 8.33057975769043, -0.17792657017707825, 0.22283552587032318, 0.05998946353793144, 0.01395575173039455, -0.01813248187502836, 0.02338095067015126
239432, 0.6116829514503479, -1.010250449180603, -13.305022239685059, -0.015117193572223186, 0.011774669401347637, 1.0014665126800537, 0.7655258178710938, 9362.0, 28835.0, 32767.0, 9362.0, 0.0, 8.33057975769043, -0.1779249608516693, 0.2228451371192932, 0.05999552458524704, 0.02219888366427242, -0.027607336404997795, 0.02489837495222741
239442, 0.6129328608512878, -1.0087305307388306, -13.305475234985352, -0.015710866078734398, 0.010949255898594856, 1.0034213066101074, 0.7545852661132812, 9362.0, 28835.0, 32767.0, 9362.0, 0.0, 8.33057975769043, -0.1779211014509201, 0.22281843423843384, 0.0599873848259449, 0.01354950345559567, -0.012649501452642653, 0.027151920838303135
239452, 0.611780047416687, -1.007810354232788, -13.305822372436523, -0.016362737864255905, 0.011004047468304634, 1.0030908584594727, 0.7545852661132812, 9362.0, 28835.0, 32767.0, 9362.0, 0.0, 8.310744285583496, -0.17793236672878265, 0.22283057868480682, 0.05999656021595001, 0.013587877022437252, -0.013909968046647236, 0.03222318225797516
239462, 0.6106694340705872, -1.0079972743988037, -13.307616233825684, -0.016563264653086662, 0.01245884969830513, 1.0023293495178223, 0.6643600463867188, 9362.0, 28835.0, 32767.0, 9362.0, 0.0, 8.33057975769043, -0.17792440950870514, 0.2228287011384964, 0.06002342328429222, 0.017412564045876558, -0.020636932538707242, 0.01755983835467867
239472, 0.6097648739814758, -1.0072592496871948, -13.308544158935547, -0.014932862482964993, 0.009613627567887306, 1.0015761852264404, 0.6643600463867188, 9362.0, 28835.0, 32767.0, 9362.0, 0.0, 8.33057975769043, -0.1779354363679886, 0.22284545004367828, 0.05999345704913139, 0.01626782479092931, -0.025354560854395913, 0.025650595534523268
239482, 0.6102913022041321, -1.0053004026412964, -13.310266494750977, -0.014113780111074448, 0.010740443132817745, 1.0020259618759155, 0.6889724731445312, 9362.0, 28835.0, 32767.0, 9362.0, 0.0, 8.33057975769043, -0.1779412478208542, 0.22283755242824554, 0.06000534072518349, 0.016407825723984217, -0.022857809538805895, 0.023547223763231494
239492, 0.6108383536338806, -1.0046559572219849, -13.3102445602417, -0.015533468686044216, 0.009972015395760536, 1.0034428834915161, 0.6889724731445312, 9362.0, 28835.0, 32767.0, 9362.0, 0.0, 8.33057975769043, -0.17793266475200653, 0.22284674644470215, 0.059988733381032944, 0.013648139729523494, -0.0303139839460016, 0.02594940038401152
239502, 0.6105563044548035, -1.0057960748672485, -13.311616897583008, -0.016240907832980156, 0.011893635615706444, 1.0017063617706299, 0.5850753784179688, 9362.0, 28835.0, 32767.0, 9362.0, 0.0, 8.33057975769043, -0.1779278665781021, 0.22284230589866638, 0.05998114123940468, 0.016438369261562672, -0.027272077332582967, 0.03059789584552529
239512, 0.6109989881515503, -1.00832200050354, -13.311870574951172, -0.01720076985657215, 0.009779093787074089, 0.9983499646186829, 0.5850753784179688, 9362.0, 28835.0, 32767.0, 9362.0, 0.0, 8.33057975769043, -0.1779157966375351, 0.22283318638801575, 0.06000572070479393, 0.01830331854061943, -0.02139969153611787, 0.026337212640585788
239522, 0.6102380752563477, -1.0077953338623047, -13.312828063964844, -0.01619565859436989, 0.010367874056100845, 0.9983178973197937, 0.6397552490234375, 9362.0, 28835.0, 32767.0, 9362.0, 0.0, 8.33057975769043, -0.1779336780309677, 0.22284501791000366, 0.06001482903957367, 0.019576379203599045, -0.02082098820253009, 0.02461415196004659
239532, 0.6107664108276367, -1.0077987909317017, -13.313497543334961, -0.018265681341290474, 0.011625826358795166, 1.001955509185791, 0.6397552490234375, 9362.0, 28835.0, 32767.0, 9362.0, 0.0, 8.33057975769043, -0.17793315649032593, 0.22284212708473206, 0.059974100440740585, 0.014500036084312629, -0.019619533206963524, 0.03224625472411453
239542, 0.6115593314170837, -1.0085608959197998, -13.313851356506348, -0.018662206828594208, 0.010434404015541077, 1.0017536878585815, 0.590545654296875, 9362.0, 28835.0, 32767.0, 9362.0, 0.0, 8.310744285583496, -0.17791755497455597, 0.22283026576042175, 0.0599798709154129, 0.001413293717850109, -0.01690836514646321, 0.0287830617945638
239552, 0.6117581129074097, -1.010008454322815, -13.314567565917969, -0.017158715054392815, 0.010695228353142738, 1.0022852420806885, 0.590545654296875, 9362.0, 28835.0, 32767.0, 9362.0, 0.0, 8.33057975769043, -0.17793671786785126, 0.22284752130508423, 0.05999614670872688, 0.014041425869604718, -0.013737713641575056, 0.03778719731235626
239562, 0.6116422414779663, -1.0104689598083496, -13.315044403076172, -0.016702009364962578, 0.008224254474043846, 1.0014482736587524, 0.6561660766601562, 9362.0, 28835.0, 32767.0, 9362.0, 0.0, 8.33057975769043, -0.1779244840145111, 0.22283387184143066, 0.06000540778040886, 0.019710889827708546, -0.021592202586901976, 0.03073555671553361
239572, 0.611138105392456, -1.0112271308898926, -13.315629959106445, -0.01727132499217987, 0.009204491972923279, 1.0019233226776123, 0.6561660766601562, 9362.0, 28835.0, 32767.0, 9362.0, 0.0, 8.33057975769043, -0.1781073361635208, 0.22299198806285858, 0.060338396579027176, 0.05321693781899449, -0.06575711748976687, 0.030350161810284892
239582, 0.6106117367744446, -1.0122886896133423, -13.317041397094727, -0.015627294778823853, 0.01044785138219595, 1.0020711421966553, 0.6807632446289062, 9362.0, 28835.0, 32767.0, 9362.0, 0.0, 8.33057975769043, -0.1779390424489975, 0.22284893691539764, 0.06002012640237808, 0.018760734079982046, -0.017856241937550976, 0.03297750317781833
239592, 0.6113157868385315, -1.0114706754684448, -13.31687068939209, -0.01631915755569935, 0.011811336502432823, 1.0004749298095703, 0.6807632446289062, 9362.0, 28835.0, 32767.0, 9362.0, 0.0, 8.33057975769043, -0.17793415486812592, 0.22284311056137085, 0.06003109738230705, 0.011698202020026622, -0.024128348707307623, 0.03601312980932969
239602, 0.6108787059783936, -1.0122125148773193, -13.317172050476074, -0.017643654718995094, 0.012174171395599842, 1.0002238750457764, 0.6807632446289062, 9362.0, 28835.0, 32767.0, 9362.0, 0.0, 8.33057975769043, -0.17795181274414062, 0.22284580767154694, 0.06002219393849373, 0.02163270736866549, -0.017180579423751396, 0.032030348250566276
239612, 0.6110997200012207, -1.0122945308685303, -13.318411827087402, -0.016728466376662254, 0.011864272877573967, 1.0001778602600098, 0.6807632446289062, 9362.0, 28835.0, 32767.0, 9362.0, 0.0, 8.33057975769043, -0.1779402494430542, 0.22285006940364838, 0.0600096620619297, 0.013079108567557592, -0.017456467074026705, 0.031810466591201424
239622, 0.6105729937553406, -1.0114238262176514, -13.32005500793457, -0.014784274622797966, 0.012426094152033329, 1.002830147743225, 0.6698379516601562, 9362.0, 28835.0, 32767.0, 9362.0, 0.0, 8.33057975769043, -0.17794382572174072, 0.2228526771068573, 0.059994176030159, 0.01683716743567594, -0.015371986191070164, 0.03264945980680299
239632, 0.6103391051292419, -1.01344633102417, -13.320466041564941, -0.016571661457419395, 0.012054143473505974, 1.0035473108291626, 0.6698379516601562, 9362.0, 28835.0, 32767.0, 9362.0, 0.0, 8.33057975769043, -0.1779354214668274, 0.22282759845256805, 0.06002749875187874, 0.013965543996052614, -0.02456004746474605, 0.03357592869141389
239642, 0.6120143532752991, -1.0138967037200928, -13.321730613708496, -0.01637491211295128, 0.01421976275742054, 1.004485845565796, 0.6807632446289062, 9362.0, 28835.0, 32767.0, 9362.0, 0.0, 8.310744285583496, -0.17793862521648407, 0.22285178303718567, 0.06001368165016174, 0.012944914745573114, -0.02769070097699, 0.03311816581106723
239652, 0.613174557685852, -1.0148544311523438, -13.323264122009277, -0.014602262526750565, 0.012425794266164303, 1.0022852420806885, 0.6807632446289062, 9362.0, 28835.0, 32767.0, 9362.0, 0.0, 8.33057975769043, -0.1779448390007019, 0.2228509485721588, 0.05999579280614853, 0.01652821594027242, -0.013155368748925866, 0.02704053343988123
239662, 0.6125227808952332, -1.01446533203125, -13.32420539855957, -0.01524942647665739, 0.012141617946326733, 1.0020408630371094, 0.6670989990234375, 9362.0, 28835.0, 32767.0, 9362.0, 0.0, 8.33057975769043, -0.17792701721191406, 0.22283300757408142, 0.05998796597123146, 0.019867008522886347, -0.013330092704904928, 0.030385206505593027
239672, 0.6107261180877686, -1.015769362449646, -13.326139450073242, -0.015949495136737823, 0.009451126679778099, 1.0024144649505615, 0.6670989990234375, 9362.0, 28835.0, 32767.0, 9362.0, 0.0, 8.33057975769043, -0.17793217301368713, 0.22283591330051422, 0.05998871475458145, 0.012865189896012423, -0.005669436671865924, 0.02369499026278466
239682, 0.611452043056488, -1.0167677402496338, -13.326974868774414, -0.01615675538778305, 0.009636204689741135, 1.0007556676864624, 0.5550003051757812, 9362.0, 28835.0, 32767.0, 9362.0, 0.0, 8.33057975769043, -0.17794525623321533, 0.22285214066505432, 0.0600234679877758, 0.01993270701202628, -0.027447917503820918, 0.03284844123083469
239692, 0.6099951267242432, -1.019122838973999, -13.328374862670898, -0.016656816005706787, 0.009652749635279179, 1.0027621984481812, 0.5550003051757812, 9362.0, 28835.0, 32767.0, 9362.0, 0.0, 8.33057975769043, -0.17793428897857666, 0.22285036742687225, 0.0599801242351532, 0.01173979226916275, -0.009481691883735266, 0.028106964028186004
239702, 0.6113778948783875, -1.0192309617996216, -13.328380584716797, -0.016468755900859833, 0.009012351743876934, 1.0009273290634155, 0.5741348266601562, 9362.0, 28835.0, 32767.0, 9362.0, 0.0, 8.33057975769043, -0.1779281049966812, 0.222840815782547, 0.05997208505868912, 0.022356943069342664, -0.009255155532542858, 0.027995999603156272
239712, 0.6102790832519531, -1.0197317600250244, -13.328415870666504, -0.015830185264348984, 0.008956760168075562, 1.0001519918441772, 0.5741348266601562, 9362.0, 28835.0, 32767.0, 9362.0, 0.0, 8.33057975769043, -0.17791932821273804, 0.22282537817955017, 0.05997731536626816, 0.015126531783249738, -0.018250305246169773, 0.03489132540256262
239722, 0.6096695065498352, -1.0174732208251953, -13.32869815826416, -0.015200040303170681, 0.010866070166230202, 1.0015840530395508, 0.5604705810546875, 9362.0, 28835.0, 32767.0, 9362.0, 0.0, 8.33057975769043, -0.1779363453388214, 0.22284206748008728, 0.05999915301799774, 0.022400295066363013, -0.019546891183694015, 0.0321714970242877
239732, 0.6099849939346313, -1.0167863368988037, -13.328964233398438, -0.017615314573049545, 0.010247135534882545, 1.0029208660125732, 0.5604705810546875, 9362.0, 28835.0, 32767.0, 9362.0, 0.0, 8.33057975769043, -0.1779150515794754, 0.22282564640045166, 0.059980086982250214, 0.018065848757522682, -0.010505761025939364, 0.03607027908454395
239742, 0.6113596558570862, -1.0162391662597656, -13.328795433044434, -0.016025403514504433, 0.009838514029979706, 1.0017082691192627, 0.5331268310546875, 9362.0, 28835.0, 32767.0, 9362.0, 0.0, 8.33057975769043, -0.17792581021785736, 0.2228361815214157, 0.0599832758307457, 0.02066897736949648, -0.01381320773373318, 0.032520307133299384
239752, 0.6099318861961365, -1.0164318084716797, -13.329273223876953, -0.01618550904095173, 0.011530322954058647, 1.00279700756073, 0.5331268310546875, 9362.0, 28835.0, 32767.0, 9362.0, 0.0, 8.33057975769043, -0.17792189121246338, 0.22284743189811707, 0.060009632259607315, 0.012682912427587597, -0.022990364959298404, 0.0313633960799415
239762, 0.6081717610359192, -1.0137121677398682, -13.3303804397583, -0.016163121908903122, 0.010138426907360554, 1.001585602760315, 0.6206207275390625, 9362.0, 28835.0, 32767.0, 9362.0, 0.0, 8.33057975769043, -0.17793568968772888, 0.22284391522407532, 0.06000702083110809, 0.012327443791449334, -0.02691486011167399, 0.030072134345850043
239772, 0.6083043217658997, -1.0123423337936401, -13.330037117004395, -0.015479221940040588, 0.01013898104429245, 1.0012928247451782, 0.6206207275390625, 9362.0, 28835.0, 32767.0, 9362.0, 0.0, 8.33057975769043, -0.17790398001670837, 0.22284503281116486, 0.059967707842588425, 0.01246443544748316, -0.01401339895241449, 0.03300365642859154
239782, 0.6091253161430359, -1.0121957063674927, -13.330920219421387, -0.01508412230759859, 0.009464172646403313, 1.0008971691131592, 0.6698379516601562, 9362.0, 28835.0, 32767.0, 9362.0, 0.0, 8.33057975769043, -0.17792721092700958, 0.22284922003746033, 0.05998823419213295, 0.021187847254225577, -0.015055187124147551, 0.038638162974411694
239792, 0.610572099685669, -1.0126289129257202, -13.331317901611328, -0.016993679106235504, 0.008929260075092316, 1.0023257732391357, 0.6698379516601562, 9362.0, 28835.0, 32767.0, 9362.0, 0.0, 8.33057975769043, -0.17793285846710205, 0.22284522652626038, 0.05999921262264252, 0.021573218421229206, -0.021432754481992333, 0.037442475821649
239802, 0.6107936501502991, -1.0119590759277344, -13.331558227539062, -0.015149954706430435, 0.010637540370225906, 1.0029704570770264, 0.724517822265625, 9362.0, 28835.0, 32767.0, 9362.0, 0.0, 8.33057975769043, -0.17792265117168427, 0.2228466272354126, 0.06002615764737129, 0.018668931520051862, -0.02211784699508712, 0.03315952543857606
239812, 0.6098690629005432, -1.0132622718811035, -13.33347225189209, -0.014697153121232986, 0.008027803152799606, 1.0006760358810425, 0.724517822265625, 9362.0, 28835.0, 32767.0, 9362.0, 0.0, 8.33057975769043, -0.17791743576526642, 0.2228359580039978, 0.059995733201503754, 0.01992571003501429, -0.01273814395079853, 0.03376282956499335
239822, 0.6092220544815063, -1.0139997005462646, -13.335454940795898, -0.014075183309614658, 0.0074745966121554375, 0.9991238117218018, 0.7081069946289062, 9362.0, 28835.0, 32767.0, 9362.0, 0.0, 8.33057975769043, -0.17792241275310516, 0.22284062206745148, 0.06000374257564545, 0.02115315616251375, -0.012924610967502304, 0.03832607970897252
239832, 0.608941376209259, -1.015606164932251, -13.336133003234863, -0.015482398681342602, 0.010178716853260994, 0.999622106552124, 0.7081069946289062, 9362.0, 28835.0, 32767.0, 9362.0, 0.0, 8.310744285583496, -0.17794373631477356, 0.22285115718841553, 0.06001238897442818, 0.020772798416457697, -0.03350816622750585, 0.04033388323377187
239842, 0.6093912720680237, -1.0148000717163086, -13.337783813476562, -0.01624126546084881, 0.011998439207673073, 1.0002262592315674, 0.6643600463867188, 9362.0, 28835.0, 32767.0, 9362.0, 0.0, 8.33057975769043, -0.17791740596294403, 0.2228456288576126, 0.05998259037733078, 0.013395846965934592, -0.02067657570233905, 0.03387105798986547
239852, 0.6092610955238342, -1.0145353078842163, -13.338630676269531, -0.015160555019974709, 0.01253370102494955, 0.9999877214431763, 0.6643600463867188, 9362.0, 28835.0, 32767.0, 9362.0, 0.0, 8.33057975769043, -0.1779172718524933, 0.2228446900844574, 0.05999324843287468, 0.00911601049786048, -0.011034241334158423, 0.036031789463424266
239862, 0.6096380949020386, -1.0146548748016357, -13.34058666229248, -0.015600672923028469, 0.014259682036936283, 1.0022023916244507, 0.6999053955078125, 9362.0, 28835.0, 32767.0, 9362.0, 0.0, 8.33057975769043, -0.17794084548950195, 0.22284846007823944, 0.06000959128141403, 0.025037085641802487, -0.022898458671107846, 0.0435716109920347
239872, 0.6093117594718933, -1.0158028602600098, -13.342245101928711, -0.019780203700065613, 0.011658756993710995, 1.0011844635009766, 0.6999053955078125, 9362.0, 28835.0, 32767.0, 9362.0, 0.0, 8.33057975769043, -0.17793008685112, 0.22284358739852905, 0.05998172238469124, 0.023438785303464764, -0.0040928965431703546, 0.03672338119338034
239882, 0.6097750067710876, -1.017333745956421, -13.343162536621094, -0.018288375809788704, 0.010677710175514221, 1.0003522634506226, 0.6670989990234375, 9362.0, 28835.0, 32767.0, 9362.0, 0.0, 8.33057975769043, -0.17792953550815582, 0.2228429615497589, 0.060024067759513855, 0.025108678474302693, -0.014865396263246566, 0.030822239529615783
239892, 0.6112101078033447, -1.0187937021255493, -13.343439102172852, -0.017218947410583496, 0.010926785878837109, 1.0007045269012451, 0.6670989990234375, 9362.0, 28835.0, 32767.0, 9362.0, 0.0, 8.33057975769043, -0.17792178690433502, 0.22284437716007233, 0.0599924772977829, 0.028050348321433438, -0.013687290111136008, 0.03961431453658771
239902, 0.6110698580741882, -1.0162349939346313, -13.34414291381836, -0.015107711777091026, 0.011991818435490131, 1.0022883415222168, 0.6780319213867188, 9362.0, 28835.0, 32767.0, 9362.0, 0.0, 8.33057975769043, -0.17793558537960052, 0.22284191846847534, 0.060017529875040054, 0.015515063934975896, -0.01890883407901356, 0.030841724795052466
239912, 0.6104528903961182, -1.0169081687927246, -13.345207214355469, -0.01790100708603859, 0.011230044066905975, 1.0037105083465576, 0.6780319213867188, 9362.0, 28835.0, 32767.0, 9362.0, 0.0, 8.33057975769043, -0.17792294919490814, 0.2228386253118515, 0.06002601608633995, 0.013434941138354944, -0.027538243331690637, 0.025586928435485178
239922, 0.6104447841644287, -1.0172847509384155, -13.345282554626465, -0.019107133150100708, 0.010346300899982452, 1.0020123720169067, 0.65069580078125, 9362.0, 28835.0, 32767.0, 9362.0, 0.0, 8.33057975769043, -0.1779436320066452, 0.22284184396266937, 0.06001800298690796, 0.020671391902935224, -0.022169132914996226, 0.022813955035487554
239932, 0.6114324331283569, -1.019210934638977, -13.345412254333496, -0.01692689023911953, 0.013451154343783855, 1.0023155212402344, 0.65069580078125, 9362.0, 28835.0, 32767.0, 9362.0, 0.0, 8.33057975769043, -0.17793263494968414, 0.22284269332885742, 0.059995364397764206, 0.01359918813428274, -0.014495416582974485, 0.021630342370124823
239942, 0.6137933135032654, -1.0201326608657837, -13.346033096313477, -0.015290613286197186, 0.014674436300992966, 1.0029271841049194, 0.6917037963867188, 9362.0, 28835.0, 32767.0, 9362.0, 0.0, 8.33057975769043, -0.17794787883758545, 0.22284893691539764, 0.060018375515937805, 0.016127252958740887, -0.019143662079130763, 0.02938505290165773
239952, 0.6124681830406189, -1.0199867486953735, -13.346020698547363, -0.016398653388023376, 0.010902712121605873, 1.0029809474945068, 0.6917037963867188, 9362.0, 28835.0, 32767.0, 9362.0, 0.0, 8.33057975769043, -0.17793244123458862, 0.222824364900589, 0.05999758839607239, 0.02431947060319015, -0.013762017449352015, 0.029731453433183636
239962, 0.612889289855957, -1.0208877325057983, -13.3462553024292, -0.016485489904880524, 0.010252315551042557, 1.0030300617218018, 0.6725692749023438, 9362.0, 28835.0, 32767.0, 9362.0, 0.0, 8.33057975769043, -0.1779307872056961, 0.22283650934696198, 0.06002824008464813, 0.014930946012833516, -0.02491525841472253, 0.030642957915968154
239972, 0.612143337726593, -1.020676612854004, -13.34649658203125, -0.015572466887533665, 0.010134481824934483, 1.0011152029037476, 0.6725692749023438, 9362.0, 28835.0, 32767.0, 9362.0, 0.0, 8.33057975769043, -0.17792463302612305, 0.2228461354970932, 0.05998285114765167, 0.005569679153923065, -0.020647348896034146, 0.021804375105524985
239982, 0.6125116348266602, -1.0198612213134766, -13.347427368164062, -0.014676310122013092, 0.009961448609828949, 1.0010355710983276, 0.7053756713867188, 9362.0, 28835.0, 32767.0, 9362.0, 0.0, 8.310744285583496, -0.1779317706823349, 0.22285707294940948, 0.05999571457505226, 0.019207471110149293, -0.01340211379908851, 0.03118610410792539
239992, 0.6126709580421448, -1.0196720361709595, -13.348700523376465, -0.015196049585938454, 0.012796849943697453, 1.0029098987579346, 0.7053756713867188, 9362.0, 28835.0, 32767.0, 9362.0, 0.0, 8.33057975769043, -0.17792940139770508, 0.22284013032913208, 0.05998042970895767, 0.018530572915554797, -0.017610012510289152, 0.036478898960939636
240002, 0.6133795976638794, -1.0200444459915161, -13.350613594055176, -0.01659413054585457, 0.011391950771212578, 1.0025520324707031, 0.7272491455078125, 9362.0, 28835.0, 32767.0, 9362.0, 0.0, 8.33057975769043, -0.1779146045446396, 0.22283321619033813, 0.05998818576335907, 0.021712983819158902, 0.00033544512535854665, 0.029105211605359935
240012, 0.6138478517532349, -1.0188701152801514, -13.352482795715332, -0.017628416419029236, 0.012211738154292107, 1.002255916595459, 0.7272491455078125, 9362.0, 28835.0, 32767.0, 9362.0, 0.0, 8.33057975769043, -0.17792387306690216, 0.22283311188220978, 0.06000254675745964, 0.016126053707863804, -0.025733924966658606, 0.0374411818027186
240022, 0.6145025491714478, -1.0206661224365234, -13.352900505065918, -0.01768253929913044, 0.012383656576275826, 1.002838373184204, 0.7463836669921875, 9362.0, 28835.0, 32767.0, 9362.0, 0.0, 8.33057975769043, -0.17791835963726044, 0.22283479571342468, 0.059993743896484375, 0.015754394662520273, -0.02741490804172031, 0.02509461922385318
240032, 0.6153294444084167, -1.0207620859146118, -13.35278034210205, -0.017027854919433594, 0.00948974397033453, 1.0027539730072021, 0.7463836669921875, 9362.0, 28835.0, 32767.0, 9362.0, 0.0, 8.33057975769043, -0.17793123424053192, 0.2228468805551529, 0.06000848487019539, 0.01917921957757441, -0.022783019734390564, 0.029230249586947577
240042, 0.6170092821121216, -1.02022385597229, -13.352980613708496, -0.01608596369624138, 0.010990653187036514, 1.0010535717010498, 0.7381820678710938, 9362.0, 28835.0, 32767.0, 9362.0, 0.0, 8.310744285583496, -0.17792318761348724, 0.22283177077770233, 0.06002335622906685, 0.015073655348609664, -0.022294060059152798, 0.025571007619097943
240052, 0.6174347996711731, -1.0205305814743042, -13.352882385253906, -0.016727587208151817, 0.012206779792904854, 1.00319504737854, 0.7381820678710938, 9362.0, 28835.0, 32767.0, 9362.0, 0.0, 8.33057975769043, -0.17792575061321259, 0.2228427529335022, 0.0599810890853405, 0.019341179281992846, -0.010042221505386806, 0.0377735242340744
240062, 0.6162764430046082, -1.0203633308410645, -13.355295181274414, -0.01616894267499447, 0.012004124000668526, 1.0026428699493408, 0.7381820678710938, 9362.0, 28835.0, 32767.0, 9362.0, 0.0, 8.310744285583496, -0.17793358862400055, 0.22283190488815308, 0.060006044805049896, 0.01786554598528642, -0.02484445446805239, 0.03450139285505185
240072, 0.616550624370575, -1.0212990045547485, -13.354341506958008, -0.016591724008321762, 0.009147409349679947, 1.0004884004592896, 0.817474365234375, 9362.0, 28835.0, 32767.0, 9362.0, 0.0, 8.310744285583496, -0.17793624103069305, 0.22284680604934692, 0.0600300133228302, 0.019718722232975144, -0.017365860532464694, 0.025129546133681763
240082, 0.6166099309921265, -1.0196242332458496, -13.353946685791016, -0.01693005859851837, 0.009850794449448586, 1.0016412734985352, 0.7463836669921875, 9362.0, 28835.0, 32767.0, 9362.0, 0.0, 8.33057975769043, -0.17794236540794373, 0.22284631431102753, 0.06000674515962601, 0.02293383088823356, -0.02021701653495711, 0.03612595249356784
240092, 0.6165846586227417, -1.0184826850891113, -13.355051040649414, -0.01485343836247921, 0.00965164601802826, 1.003182291984558, 0.7463836669921875, 9362.0, 28835.0, 32767.0, 9362.0, 0.0, 8.310744285583496, -0.17793738842010498, 0.22285854816436768, 0.05999625846743584, 0.013705293503594519, -0.024451151009884597, 0.030941246894341686
240102, 0.6142382621765137, -1.0174278020858765, -13.355132102966309, -0.015504028648138046, 0.01108128484338522, 1.0021237134933472, 0.7463836669921875, 9362.0, 28835.0, 32767.0, 9362.0, 0.0, 8.33057975769043, -0.17792581021785736, 0.2228458970785141, 0.06001230701804161, 0.012110548727741708, -0.019856341618634588, 0.02453791703200211
240112, 0.6147194504737854, -1.0186480283737183, -13.355314254760742, -0.017437394708395004, 0.008520265109837055, 1.0017632246017456, 0.817474365234375, 9362.0, 28835.0, 32767.0, 9362.0, 0.0, 8.33057975769043, -0.17792417109012604, 0.22284062206745148, 0.06003492698073387, 0.022036932760556405, -0.016443949197054053, 0.032467561404098594
240122, 0.6153088808059692, -1.0223177671432495, -13.355863571166992, -0.017081473022699356, 0.009959227405488491, 1.000927209854126, 0.817474365234375, 9362.0, 28835.0, 32767.0, 9362.0, 0.0, 8.33057975769043, -0.17792388796806335, 0.22284607589244843, 0.05999069660902023, 0.01474400220784392, -0.013526462608552947, 0.03592505346543917
240132, 0.6161329746246338, -1.0231574773788452, -13.355666160583496, -0.01773080974817276, 0.010702228173613548, 0.9997678995132446, 0.7873916625976562, 9362.0, 28835.0, 32767.0, 9362.0, 0.0, 8.33057975769043, -0.17794567346572876, 0.22284382581710815, 0.06002597138285637, 0.016309695414586923, -0.019241818152408996, 0.03337640018672546
240142, 0.6166231036186218, -1.0208854675292969, -13.356274604797363, -0.015618274919688702, 0.011758893728256226, 1.000175952911377, 0.7573165893554688, 9362.0, 28835.0, 32767.0, 9362.0, 0.0, 8.33057975769043, -0.17793890833854675, 0.22285307943820953, 0.060013145208358765, 0.009372532759511635, -0.019547012147427267, 0.023876748897511926
240152, 0.6165215969085693, -1.0215188264846802, -13.357963562011719, -0.016817744821310043, 0.009311352856457233, 1.0013309717178345, 0.7573165893554688, 9362.0, 28835.0, 32767.0, 9362.0, 0.0, 8.33057975769043, -0.17792989313602448, 0.22283339500427246, 0.06001877412199974, 0.006730122572954996, -0.020394965116651065, 0.02599962435189324
240162, 0.6155941486358643, -1.0227246284484863, -13.3585205078125, -0.017036225646734238, 0.008003906346857548, 1.0041626691818237, 0.7573165893554688, 9362.0, 28835.0, 32767.0, 9362.0, 0.0, 8.33057975769043, -0.17791980504989624, 0.22283394634723663, 0.059993792325258255, 0.017047830406826586, -0.012792628536601569, 0.03153393321116001
240172, 0.6164388656616211, -1.0209816694259644, -13.35857105255127, -0.018052443861961365, 0.009434103965759277, 1.0028764009475708, 0.7791976928710938, 9362.0, 28835.0, 32767.0, 9362.0, 0.0, 8.33057975769043, -0.17793786525726318, 0.2228483259677887, 0.05999034270644188, 0.01389474281553943, -0.011038578162214208, 0.028808405504869846
240182, 0.6159413456916809, -1.0189709663391113, -13.358222961425781, -0.015839621424674988, 0.011604299768805504, 1.0024168491363525, 0.7791976928710938, 9362.0, 28835.0, 32767.0, 9362.0, 0.0, 8.33057975769043, -0.17794184386730194, 0.22283752262592316, 0.059986215084791183, 0.01909814292835527, -0.018743937220108364, 0.03311390112651392
240192, 0.6168866753578186, -1.0191384553909302, -13.358887672424316, -0.015033455565571785, 0.012402704916894436, 1.0014941692352295, 0.828399658203125, 9362.0, 28835.0, 32767.0, 9362.0, 0.0, 8.33057975769043, -0.17792482674121857, 0.2228584736585617, 0.0599900558590889, 0.018274592055468563, -0.01013010051556762, 0.025286305710907318
240202, 0.6184207797050476, -1.0207659006118774, -13.35930061340332, -0.016622163355350494, 0.010771645233035088, 1.0007206201553345, 0.828399658203125, 9362.0, 28835.0, 32767.0, 9362.0, 0.0, 8.33057975769043, -0.17792166769504547, 0.22284026443958282, 0.060022830963134766, 0.00862740766340029, -0.018328228910178268, 0.02617873473130993
240212, 0.6172161102294922, -1.0212382078170776, -13.359695434570312, -0.01635778695344925, 0.010245371609926224, 1.0000821352005005, 0.7409210205078125, 9362.0, 28835.0, 32767.0, 9362.0, 0.0, 8.33057975769043, -0.17793649435043335, 0.2228413224220276, 0.05998712405562401, 0.017574616598570923, -0.021283775824258555, 0.03449175801892201
240222, 0.61781907081604, -1.0218992233276367, -13.360458374023438, -0.016937702894210815, 0.009515214711427689, 1.0020931959152222, 0.7409210205078125, 9362.0, 28835.0, 32767.0, 9362.0, 0.0, 8.33057975769043, -0.17792366445064545, 0.222835972905159, 0.05997669696807861, 0.021401188785252056, -0.00371581518791686, 0.025256491400158728
240232, 0.6177358627319336, -1.0230214595794678, -13.361403465270996, -0.016417287290096283, 0.009715459309518337, 1.003516674041748, 0.6889724731445312, 9362.0, 28835.0, 32767.0, 9362.0, 0.0, 8.33057975769043, -0.17792224884033203, 0.22282634675502777, 0.059991754591464996, 0.014468048675288742, -0.015984942676453784, 0.03414208364471095
240242, 0.6181349754333496, -1.0223861932754517, -13.362133979797363, -0.01853504776954651, 0.011482598260045052, 1.0014612674713135, 0.6889724731445312, 9362.0, 28835.0, 32767.0, 9362.0, 0.0, 8.33057975769043, -0.1779150366783142, 0.2228173166513443, 0.06001751497387886, 0.017211244432770074, -0.012932070336404422, 0.02761592702323166
240252, 0.6167458295822144, -1.020918846130371, -13.363385200500488, -0.018945548683404922, 0.012186690233647823, 1.000413179397583, 0.71630859375, 9362.0, 28835.0, 32767.0, 9362.0, 0.0, 8.33057975769043, -0.17793641984462738, 0.22283899784088135, 0.060011740773916245, 0.013387953145799386, -0.020235742826145042, 0.030398813771628556
240262, 0.6158473491668701, -1.0218548774719238, -13.365674018859863, -0.017249820753932, 0.012113649398088455, 1.0006062984466553, 0.71630859375, 9362.0, 28835.0, 32767.0, 9362.0, 0.0, 8.33057975769043, -0.17793890833854675, 0.2228367179632187, 0.05999187380075455, 0.014920800198311775, -0.01589282655626789, 0.027961583300565158
240272, 0.6159728169441223, -1.0220524072647095, -13.366247177124023, -0.016504542902112007, 0.010390937328338623, 1.0026094913482666, 0.6807632446289062, 9362.0, 28835.0, 32767.0, 9362.0, 0.0, 8.33057975769043, -0.17792868614196777, 0.22283773124217987, 0.05998130887746811, 0.01796970497167496, -0.008662768980627789, 0.032615355272543216
240282, 0.6166427135467529, -1.0249024629592896, -13.367042541503906, -0.017656471580266953, 0.010828975588083267, 1.001047134399414, 0.6807632446289062, 9362.0, 28835.0, 32767.0, 9362.0, 0.0, 8.33057975769043, -0.17790544033050537, 0.2228374481201172, 0.05997160077095032, 0.011846084756729281, -0.006622876635589137, 0.02173383080158346
240292, 0.6170210242271423, -1.0243830680847168, -13.368046760559082, -0.016654906794428825, 0.010718490928411484, 1.0006139278411865, 0.697174072265625, 9362.0, 28835.0, 32767.0, 9362.0, 0.0, 8.33057975769043, -0.17793060839176178, 0.2228417694568634, 0.05998866260051727, 0.014353275976227793, -0.01625147497580315, 0.02300118744781195
240302, 0.6165891885757446, -1.0239492654800415, -13.369593620300293, -0.017410026863217354, 0.010862365365028381, 1.0013991594314575, 0.697174072265625, 9362.0, 28835.0, 32767.0, 9362.0, 0.0, 8.33057975769043, -0.17793379724025726, 0.22284755110740662, 0.05997895449399948, 0.020086674353861033, -0.014722589293938881, 0.03192172788017391
240312, 0.616149365901947, -1.0251290798187256, -13.37083625793457, -0.01617223583161831, 0.010588361881673336, 1.004456877708435, 0.6206207275390625, 9362.0, 28835.0, 32767.0, 9362.0, 0.0, 8.33057975769043, -0.17793269455432892, 0.2228260189294815, 0.05999121814966202, 0.015711870539350463, -0.008886452299009306, 0.02723502080760825
240322, 0.6159296035766602, -1.0272822380065918, -13.37126350402832, -0.01661662571132183, 0.010072614997625351, 1.0020006895065308, 0.6206207275390625, 9362.0, 28835.0, 32767.0, 9362.0, 0.0, 8.33057975769043, -0.1779424101114273, 0.22283808887004852, 0.0600145198404789, 0.020829234531421745, -0.01764640221804825, 0.03835257767135639
240332, 0.6158528923988342, -1.0262140035629272, -13.37309455871582, -0.016108162701129913, 0.011043922044336796, 1.0007221698760986, 0.6561660766601562, 9362.0, 28835.0, 32767.0, 9362.0, 0.0, 8.33057975769043, -0.17791703343391418, 0.22284099459648132, 0.06000848859548569, 0.02374922216117947, -0.02130997544563229, 0.029893887241643213
240342, 0.6158969402313232, -1.0245280265808105, -13.375070571899414, -0.015064531937241554, 0.009793583303689957, 1.0025410652160645, 0.6561660766601562, 9362.0, 28835.0, 32767.0, 9362.0, 0.0, 8.33057975769043, -0.1779317557811737, 0.22283056378364563, 0.06000246852636337, 0.013306232488220516, -0.014495796305197928, 0.02159366711837654
240352, 0.6166974306106567, -1.0242818593978882, -13.375319480895996, -0.016432126984000206, 0.012321176007390022, 1.0032877922058105, 0.6342926025390625, 9362.0, 28835.0, 32767.0, 9362.0, 0.0, 8.310744285583496, -0.17793962359428406, 0.22283823788166046, 0.060012031346559525, 0.017109570861689013, -0.022791395466214226, 0.033525146274195484
240362, 0.6157019734382629, -1.0233569145202637, -13.376967430114746, -0.01543596014380455, 0.009122953750193119, 1.0032384395599365, 0.6342926025390625, 9362.0, 28835.0, 32767.0, 9362.0, 0.0, 8.310744285583496, -0.17794817686080933, 0.2228403389453888, 0.06000489369034767, 0.01860569739184623, -0.022645515355748103, 0.03534938117547308
240372, 0.6153096556663513, -1.0213795900344849, -13.376814842224121, -0.015296941623091698, 0.010315332561731339, 1.000115990638733, 0.6753005981445312, 9362.0, 28835.0, 32767.0, 9362.0, 0.0, 8.33057975769043, -0.17792631685733795, 0.22282220423221588, 0.060005322098731995, 0.019369982404361937, -0.014048083503524822, 0.023447372023002802
240382, 0.6133849620819092, -1.0217695236206055, -13.379292488098145, -0.018450725823640823, 0.010072918608784676, 1.0016894340515137, 0.6753005981445312, 9362.0, 28835.0, 32767.0, 9362.0, 0.0, 8.33057975769043, -0.17793728411197662, 0.2228369116783142, 0.06001044809818268, 0.028260509982801097, -0.01729912909564746, 0.028703023224920746
240392, 0.6133807897567749, -1.0230076313018799, -13.378969192504883, -0.01949608512222767, 0.00915681105107069, 1.0019898414611816, 0.6834945678710938, 9362.0, 28835.0, 32767.0, 9362.0, 0.0, 8.33057975769043, -0.177933469414711, 0.22283430397510529, 0.060005560517311096, 0.015299707617291243, -0.02607749064941345, 0.028495487018232568
240402, 0.6121047735214233, -1.0231702327728271, -13.380456924438477, -0.016764720901846886, 0.008002661168575287, 1.0010968446731567, 0.6834945678710938, 9362.0, 28835.0, 32767.0, 9362.0, 0.0, 8.33057975769043, -0.17793652415275574, 0.22284185886383057, 0.05998828262090683, 0.015523330798987945, -0.013197640146074718, 0.022399524805311474
240412, 0.6116076707839966, -1.0212714672088623, -13.381722450256348, -0.015654003247618675, 0.008231108076870441, 1.0003080368041992, 0.6561660766601562, 9362.0, 28835.0, 32767.0, 9362.0, 0.0, 8.33057975769043, -0.17794661223888397, 0.2228514552116394, 0.06000308319926262, 0.012696871688698439, -0.023365535364092693, 0.032337502160501616
240422, 0.6119581460952759, -1.0203057527542114, -13.382003784179688, -0.01676681451499462, 0.008412045426666737, 1.001028299331665, 0.6561660766601562, 9362.0, 28835.0, 32767.0, 9362.0, 0.0, 8.310744285583496, -0.1779259741306305, 0.2228306531906128, 0.05997588858008385, 0.016292231254780614, -0.011530191497769238, 0.02004325813950879
240432, 0.6115490198135376, -1.0180197954177856, -13.38284683227539, -0.01589418202638626, 0.011491255834698677, 1.0020956993103027, 0.7682571411132812, 9362.0, 28835.0, 32767.0, 9362.0, 0.0, 8.310744285583496, -0.17793069779872894, 0.2228398472070694, 0.06000380218029022, 0.019317390937139016, -0.014393571774974134, 0.023035808018830848
240442, 0.6139454245567322, -1.0187203884124756, -13.382722854614258, -0.015484241768717766, 0.010996993631124496, 1.0024372339248657, 0.7682571411132812, 9362.0, 28835.0, 32767.0, 9362.0, 0.0, 8.33057975769043, -0.1779458224773407, 0.22283855080604553, 0.059995803982019424, 0.025153978306721947, -0.02531727439259157, 0.03571291571598955
240452, 0.6142604351043701, -1.0176023244857788, -13.38300895690918, -0.01625378429889679, 0.012425512075424194, 1.0007082223892212, 0.7873916625976562, 9362.0, 28835.0, 32767.0, 9362.0, 0.0, 8.33057975769043, -0.1779325157403946, 0.2228301614522934, 0.05999921262264252, 0.01703385856405788, -0.011390685612809648, 0.03440197399347068
240462, 0.614885687828064, -1.0199061632156372, -13.383967399597168, -0.014062964357435703, 0.009755044244229794, 1.0009304285049438, 0.7873916625976562, 9362.0, 28835.0, 32767.0, 9362.0, 0.0, 8.33057975769043, -0.17793729901313782, 0.22283600270748138, 0.05998324230313301, 0.02035603083720187, -0.0179264910869108, 0.030248583115157355
240472, 0.613980770111084, -1.020210862159729, -13.384671211242676, -0.015623108483850956, 0.010790660046041012, 0.9992190599441528, 0.7682571411132812, 9362.0, 28835.0, 32767.0, 9362.0, 0.0, 8.33057975769043, -0.17792800068855286, 0.2228356897830963, 0.05999717116355896, 0.023098663770674193, -0.015065071490681703, 0.022933596677633578
240482, 0.6149671077728271, -1.0223313570022583, -13.38534927368164, -0.018010545521974564, 0.009960377588868141, 1.0017133951187134, 0.7682571411132812, 9362.0, 28835.0, 32767.0, 9362.0, 0.0, 8.310744285583496, -0.17793802917003632, 0.22284425795078278, 0.05997954681515694, 0.019753372286959794, -0.018409113307001235, 0.038752177915954394
240492, 0.6147769093513489, -1.0225937366485596, -13.387332916259766, -0.01734129711985588, 0.010678617283701897, 1.0004169940948486, 0.7764663696289062, 9362.0, 28835.0, 32767.0, 9362.0, 0.0, 8.310744285583496, -0.1779368370771408, 0.22283035516738892, 0.06001836806535721, 0.023931811431523557, -0.01933032994520545, 0.030988804526960036
240502, 0.6150661110877991, -1.0235339403152466, -13.388910293579102, -0.01609240099787712, 0.009032743982970715, 1.0010979175567627, 0.7764663696289062, 9362.0, 28835.0, 32767.0, 9362.0, 0.0, 8.33057975769043, -0.17793329060077667, 0.22284071147441864, 0.0600007101893425, 0.011471978297678183, -0.021611052129514974, 0.04148440949048038
240512, 0.6154589056968689, -1.0235109329223633, -13.388833045959473, -0.017531583085656166, 0.010909047909080982, 1.0018528699874878, 0.7791976928710938, 9362.0, 28835.0, 32767.0, 9362.0, 0.0, 8.33057975769043, -0.17793618142604828, 0.22284284234046936, 0.06000807136297226, 0.02093319486681484, -0.01413678193162582, 0.0324348388165368
240522, 0.6150797605514526, -1.0223194360733032, -13.390822410583496, -0.01608196645975113, 0.008635692298412323, 1.0009982585906982, 0.7791976928710938, 9362.0, 28835.0, 32767.0, 9362.0, 0.0, 8.33057975769043, -0.17790885269641876, 0.2228362113237381, 0.0599796399474144, 0.010769143075520776, -0.013964176020010655, 0.02596535890029018
240532, 0.615284264087677, -1.0220938920974731, -13.392007827758789, -0.015803420916199684, 0.008152076974511147, 1.0016427040100098, 0.7928619384765625, 9362.0, 28835.0, 32767.0, 9362.0, 0.0, 8.33057975769043, -0.17792977392673492, 0.22284537553787231, 0.0600120835006237, 0.024544886526726054, -0.015963218159924963, 0.03339962528160867
240542, 0.6160227060317993, -1.0249640941619873, -13.391778945922852, -0.01868586055934429, 0.008584622293710709, 1.0011780261993408, 0.7928619384765625, 9362.0, 28835.0, 32767.0, 9362.0, 0.0, 8.33057975769043, -0.17792123556137085, 0.2228461354970932, 0.059962548315525055, 0.010958758203405892, -0.02383890349190665, 0.0273808018441929
240552, 0.6142427921295166, -1.0236752033233643, -13.39250659942627, -0.016870757564902306, 0.009432678110897541, 1.001504898071289, 0.749114990234375, 9362.0, 28835.0, 32767.0, 9362.0, 0.0, 8.33057975769043, -0.17791971564292908, 0.2228400707244873, 0.05999740585684776, 0.016776069950921502, -0.022270548048737737, 0.031586368946835516
